[
  {
    "wikidata_id": "Q24433",
    "name": "Gibraltar Botanic Gardens",
    "country": "United Kingdom",
    "latitude": "36.1313",
    "longitude": "-5.3511",
    "website": "http://gibraltargardens.gi/",
    "founded": "1816-01-01",
    "area_ha": "",
    "wikidata_url": "http://www.wikidata.org/entity/Q24433",
    "source": "Wikidata"
  },
  {
    "wikidata_id": "Q318081",
    "name": "Botanischer Garten Wuppertal",
    "country": "Germany",
    "latitude": "51.26027778",
    "longitude": "7.16055556",
    "website": "",
    "founded": "",
    "area_ha": "",
    "wikidata_url": "http://www.wikidata.org/entity/Q318081",
    "source": "Wikidata"
  },
  {
    "wikidata_id": "Q378480",
    "name": "Jardin des Olfacties",
    "country": "France",
    "latitude": "46.6968",
    "longitude": "-1.7628",
    "website": "http://www.lejardindesolfacties.com",
    "founded": "",
    "area_ha": "",
    "wikidata_url": "http://www.wikidata.org/entity/Q378480",
    "source": "Wikidata"
  },
  {
    "wikidata_id": "Q301787",
    "name": "University Museum of Bergen",
    "country": "Norway",
    "latitude": "60.387622222",
    "longitude": "5.321580555",
    "website": "https://www.uib.no/en/universitymuseum",
    "founded": "1825-01-01",
    "area_ha": "",
    "wikidata_url": "http://www.wikidata.org/entity/Q301787",
    "source": "Wikidata"
  },
  {
    "wikidata_id": "Q429533",
    "name": "Botanicactus",
    "country": "Spain",
    "latitude": "39.3423",
    "longitude": "3.06466389",
    "website": "",
    "founded": "1989-05-20",
    "area_ha": "",
    "wikidata_url": "http://www.wikidata.org/entity/Q429533",
    "source": "Wikidata"
  },
  {
    "wikidata_id": "Q582317",
    "name": "jardin botanique de Foncaude",
    "country": "France",
    "latitude": "42.939166",
    "longitude": "2.914614",
    "website": "http://lejardinbotaniquedefoncaude.e-monsite.com/",
    "founded": "1991-01-01",
    "area_ha": "",
    "wikidata_url": "http://www.wikidata.org/entity/Q582317",
    "source": "Wikidata"
  },
  {
    "wikidata_id": "Q319334",
    "name": "Botanischer Garten Frankfurt am Main",
    "country": "Germany",
    "latitude": "50.1272",
    "longitude": "8.65833",
    "website": "http://www.botanischergarten-frankfurt.de/",
    "founded": "1774-01-01",
    "area_ha": "",
    "wikidata_url": "http://www.wikidata.org/entity/Q319334",
    "source": "Wikidata"
  },
  {
    "wikidata_id": "Q328081",
    "name": "Rosarium Uetersen",
    "country": "Germany",
    "latitude": "53.6838",
    "longitude": "9.66981",
    "website": "",
    "founded": "1909-01-01",
    "area_ha": "",
    "wikidata_url": "http://www.wikidata.org/entity/Q328081",
    "source": "Wikidata"
  },
  {
    "wikidata_id": "Q323980",
    "name": "Botanischer Garten Marburg",
    "country": "Germany",
    "latitude": "50.803",
    "longitude": "8.80938",
    "website": "",
    "founded": "",
    "area_ha": "",
    "wikidata_url": "http://www.wikidata.org/entity/Q323980",
    "source": "Wikidata"
  },
  {
    "wikidata_id": "Q220207",
    "name": "Hong Kong Zoological and Botanical Gardens",
    "country": "People's Republic of China",
    "latitude": "22.277777777",
    "longitude": "114.156388888",
    "website": "https://www.hkzbg.gov.hk/",
    "founded": "",
    "area_ha": "",
    "wikidata_url": "http://www.wikidata.org/entity/Q220207",
    "source": "Wikidata"
  },
  {
    "wikidata_id": "Q225403",
    "name": "Botanischer Garten Rombergpark",
    "country": "Germany",
    "latitude": "51.4807",
    "longitude": "7.4684",
    "website": "",
    "founded": "",
    "area_ha": "",
    "wikidata_url": "http://www.wikidata.org/entity/Q225403",
    "source": "Wikidata"
  },
  {
    "wikidata_id": "Q301787",
    "name": "University Museum of Bergen",
    "country": "Norway",
    "latitude": "60.387622222",
    "longitude": "5.321580555",
    "website": "http://www.uib.no/universitetsmuseet",
    "founded": "1825-01-01",
    "area_ha": "",
    "wikidata_url": "http://www.wikidata.org/entity/Q301787",
    "source": "Wikidata"
  },
  {
    "wikidata_id": "Q195786",
    "name": "Prague Botanical Garden",
    "country": "Czech Republic",
    "latitude": "50.1187",
    "longitude": "14.4154",
    "website": "http://www.botanicka.cz/",
    "founded": "1969-01-01",
    "area_ha": "",
    "wikidata_url": "http://www.wikidata.org/entity/Q195786",
    "source": "Wikidata"
  },
  {
    "wikidata_id": "Q577644",
    "name": "Ladd Arboretum",
    "country": "United States",
    "latitude": "42.0568",
    "longitude": "-87.7006",
    "website": "",
    "founded": "",
    "area_ha": "",
    "wikidata_url": "http://www.wikidata.org/entity/Q577644",
    "source": "Wikidata"
  },
  {
    "wikidata_id": "Q289277",
    "name": "Kirstenbosch National Botanical Garden",
    "country": "South Africa",
    "latitude": "-33.9875",
    "longitude": "18.4325",
    "website": "",
    "founded": "1913-01-01",
    "area_ha": "",
    "wikidata_url": "http://www.wikidata.org/entity/Q289277",
    "source": "Wikidata"
  },
  {
    "wikidata_id": "Q200711",
    "name": "Lalbagh Botanical Garden, Bangalore",
    "country": "India",
    "latitude": "12.95",
    "longitude": "77.59",
    "website": "",
    "founded": "",
    "area_ha": "",
    "wikidata_url": "http://www.wikidata.org/entity/Q200711",
    "source": "Wikidata"
  },
  {
    "wikidata_id": "Q322634",
    "name": "Bonn Botanical Garden",
    "country": "Germany",
    "latitude": "50.7247",
    "longitude": "7.09167",
    "website": "http://www.botgart.uni-bonn.de/",
    "founded": "",
    "area_ha": "",
    "wikidata_url": "http://www.wikidata.org/entity/Q322634",
    "source": "Wikidata"
  },
  {
    "wikidata_id": "Q45242",
    "name": "Rio de Janeiro Botanical Garden",
    "country": "Brazil",
    "latitude": "-22.9675",
    "longitude": "-43.223889",
    "website": "http://www.jbrj.gov.br",
    "founded": "1808-06-13",
    "area_ha": "",
    "wikidata_url": "http://www.wikidata.org/entity/Q45242",
    "source": "Wikidata"
  },
  {
    "wikidata_id": "Q153829",
    "name": "Alter Botanischer Garten",
    "country": "Germany",
    "latitude": "48.141842066",
    "longitude": "11.564299402",
    "website": "",
    "founded": "1814-01-01",
    "area_ha": "",
    "wikidata_url": "http://www.wikidata.org/entity/Q153829",
    "source": "Wikidata"
  },
  {
    "wikidata_id": "Q533156",
    "name": "Villa Carlotta",
    "country": "Italy",
    "latitude": "45.9864",
    "longitude": "9.230838888",
    "website": "https://www.villacarlotta.it/",
    "founded": "1690-01-01",
    "area_ha": "",
    "wikidata_url": "http://www.wikidata.org/entity/Q533156",
    "source": "Wikidata"
  },
  {
    "wikidata_id": "Q533156",
    "name": "Villa Carlotta",
    "country": "Italy",
    "latitude": "45.9864",
    "longitude": "9.230838888",
    "website": "https://www.villacarlotta.it/en/",
    "founded": "1690-01-01",
    "area_ha": "",
    "wikidata_url": "http://www.wikidata.org/entity/Q533156",
    "source": "Wikidata"
  },
  {
    "wikidata_id": "Q533156",
    "name": "Villa Carlotta",
    "country": "Italy",
    "latitude": "45.9864",
    "longitude": "9.230838888",
    "website": "https://www.villacarlotta.it/",
    "founded": "1690-01-01",
    "area_ha": "",
    "wikidata_url": "http://www.wikidata.org/entity/Q533156",
    "source": "Wikidata"
  },
  {
    "wikidata_id": "Q533156",
    "name": "Villa Carlotta",
    "country": "Italy",
    "latitude": "45.9864",
    "longitude": "9.230838888",
    "website": "https://www.villacarlotta.it/en/",
    "founded": "1690-01-01",
    "area_ha": "",
    "wikidata_url": "http://www.wikidata.org/entity/Q533156",
    "source": "Wikidata"
  },
  {
    "wikidata_id": "Q570148",
    "name": "Old Botanical Garden of Göttingen University",
    "country": "Germany",
    "latitude": "51.5382",
    "longitude": "9.9367",
    "website": "http://www.altgart.uni-goettingen.de/",
    "founded": "1736-01-01",
    "area_ha": "",
    "wikidata_url": "http://www.wikidata.org/entity/Q570148",
    "source": "Wikidata"
  },
  {
    "wikidata_id": "Q570148",
    "name": "Old Botanical Garden of Göttingen University",
    "country": "Germany",
    "latitude": "51.5382",
    "longitude": "9.9367",
    "website": "http://www.uni-goettingen.de/de/108651.html",
    "founded": "1736-01-01",
    "area_ha": "",
    "wikidata_url": "http://www.wikidata.org/entity/Q570148",
    "source": "Wikidata"
  },
  {
    "wikidata_id": "Q8668",
    "name": "Jardin botanique de Lyon",
    "country": "France",
    "latitude": "45.7754",
    "longitude": "4.8564",
    "website": "",
    "founded": "",
    "area_ha": "",
    "wikidata_url": "http://www.wikidata.org/entity/Q8668",
    "source": "Wikidata"
  },
  {
    "wikidata_id": "Q220064",
    "name": "Parc Zoologique et Botanique de Mulhouse",
    "country": "France",
    "latitude": "47.73616667",
    "longitude": "7.34794444",
    "website": "http://www.zoo-mulhouse.com",
    "founded": "1868-01-01",
    "area_ha": "",
    "wikidata_url": "http://www.wikidata.org/entity/Q220064",
    "source": "Wikidata"
  },
  {
    "wikidata_id": "Q527767",
    "name": "Bursa Botanic Park",
    "country": "Turkey",
    "latitude": "40.219463",
    "longitude": "29.039497",
    "website": "",
    "founded": "",
    "area_ha": "",
    "wikidata_url": "http://www.wikidata.org/entity/Q527767",
    "source": "Wikidata"
  },
  {
    "wikidata_id": "Q296170",
    "name": "Osnabrück  Botanical Garden",
    "country": "Germany",
    "latitude": "52.2814",
    "longitude": "8.02793",
    "website": "",
    "founded": "",
    "area_ha": "",
    "wikidata_url": "http://www.wikidata.org/entity/Q296170",
    "source": "Wikidata"
  },
  {
    "wikidata_id": "Q476407",
    "name": "Trebah",
    "country": "United Kingdom",
    "latitude": "50.1041",
    "longitude": "-5.12325",
    "website": "https://www.trebahgarden.co.uk/",
    "founded": "",
    "area_ha": "",
    "wikidata_url": "http://www.wikidata.org/entity/Q476407",
    "source": "Wikidata"
  },
  {
    "wikidata_id": "Q596642",
    "name": "Eden Project",
    "country": "United Kingdom",
    "latitude": "50.361944444",
    "longitude": "-4.744722222",
    "website": "https://www.edenproject.com",
    "founded": "2000-05-01",
    "area_ha": "",
    "wikidata_url": "http://www.wikidata.org/entity/Q596642",
    "source": "Wikidata"
  },
  {
    "wikidata_id": "Q478839",
    "name": "Arizona-Sonora Desert Museum",
    "country": "United States",
    "latitude": "32.243888888",
    "longitude": "-111.168055555",
    "website": "http://www.desertmuseum.org",
    "founded": "1952-09-01",
    "area_ha": "",
    "wikidata_url": "http://www.wikidata.org/entity/Q478839",
    "source": "Wikidata"
  },
  {
    "wikidata_id": "Q458588",
    "name": "Belle Isle Park",
    "country": "United States",
    "latitude": "42.338333333",
    "longitude": "-82.978055555",
    "website": "http://www.belleislepark.org",
    "founded": "1845-01-01",
    "area_ha": "",
    "wikidata_url": "http://www.wikidata.org/entity/Q458588",
    "source": "Wikidata"
  },
  {
    "wikidata_id": "Q177566",
    "name": "Jardín de Aclimatación de la Orotava",
    "country": "Spain",
    "latitude": "28.411388888",
    "longitude": "-16.535833333",
    "website": "",
    "founded": "1788-08-17",
    "area_ha": "",
    "wikidata_url": "http://www.wikidata.org/entity/Q177566",
    "source": "Wikidata"
  },
  {
    "wikidata_id": "Q54489",
    "name": "Royal Botanic Gardens, Sydney",
    "country": "Australia",
    "latitude": "-33.862222",
    "longitude": "151.2175",
    "website": "https://www.botanicgardens.org.au/royal-botanic-garden-sydney",
    "founded": "1816-01-01",
    "area_ha": "",
    "wikidata_url": "http://www.wikidata.org/entity/Q54489",
    "source": "Wikidata"
  },
  {
    "wikidata_id": "Q474085",
    "name": "Botanischer Garten Augsburg",
    "country": "Germany",
    "latitude": "48.349769511",
    "longitude": "10.912423818",
    "website": "https://www.augsburg.de/freizeit/ausflugsziele/botanischer-garten/",
    "founded": "",
    "area_ha": "",
    "wikidata_url": "http://www.wikidata.org/entity/Q474085",
    "source": "Wikidata"
  },
  {
    "wikidata_id": "Q280791",
    "name": "Hryshko National Botanical Garden",
    "country": "Ukraine",
    "latitude": "50.41267",
    "longitude": "30.56225",
    "website": "http://www.nbg.kiev.ua/en/",
    "founded": "1983-07-22",
    "area_ha": "",
    "wikidata_url": "http://www.wikidata.org/entity/Q280791",
    "source": "Wikidata"
  },
  {
    "wikidata_id": "Q543379",
    "name": "Oregon Garden",
    "country": "United States",
    "latitude": "44.995",
    "longitude": "-122.79",
    "website": "",
    "founded": "1999-04-17",
    "area_ha": "",
    "wikidata_url": "http://www.wikidata.org/entity/Q543379",
    "source": "Wikidata"
  },
  {
    "wikidata_id": "Q328729",
    "name": "Rhododendron-Park Bremen",
    "country": "Germany",
    "latitude": "53.0917",
    "longitude": "8.88611",
    "website": "https://www.rhododendronpark-bremen.de/",
    "founded": "",
    "area_ha": "",
    "wikidata_url": "http://www.wikidata.org/entity/Q328729",
    "source": "Wikidata"
  },
  {
    "wikidata_id": "Q574117",
    "name": "Starhill Forest Arboretum",
    "country": "United States",
    "latitude": "39.935",
    "longitude": "-89.8017",
    "website": "",
    "founded": "",
    "area_ha": "",
    "wikidata_url": "http://www.wikidata.org/entity/Q574117",
    "source": "Wikidata"
  },
  {
    "wikidata_id": "Q486315",
    "name": "Yeomiji Botanical Garden",
    "country": "South Korea",
    "latitude": "33.2518",
    "longitude": "126.415",
    "website": "",
    "founded": "",
    "area_ha": "",
    "wikidata_url": "http://www.wikidata.org/entity/Q486315",
    "source": "Wikidata"
  },
  {
    "wikidata_id": "Q437802",
    "name": "Old Botanical Garden, Zurich",
    "country": "Switzerland",
    "latitude": "47.371111111",
    "longitude": "8.533611111",
    "website": "https://www.bg.uzh.ch/en/visit/altergarten.html",
    "founded": "1837-01-01",
    "area_ha": "",
    "wikidata_url": "http://www.wikidata.org/entity/Q437802",
    "source": "Wikidata"
  },
  {
    "wikidata_id": "Q589884",
    "name": "San Francisco Botanical Garden",
    "country": "United States",
    "latitude": "37.768333333",
    "longitude": "-122.47",
    "website": "https://www.sfbg.org/",
    "founded": "",
    "area_ha": "",
    "wikidata_url": "http://www.wikidata.org/entity/Q589884",
    "source": "Wikidata"
  },
  {
    "wikidata_id": "Q385057",
    "name": "Cornell Botanic Gardens",
    "country": "United States",
    "latitude": "42.45",
    "longitude": "-76.472",
    "website": "",
    "founded": "1875-01-01",
    "area_ha": "",
    "wikidata_url": "http://www.wikidata.org/entity/Q385057",
    "source": "Wikidata"
  },
  {
    "wikidata_id": "Q328848",
    "name": "Freiburg Botanical Garden",
    "country": "Germany",
    "latitude": "48.0097",
    "longitude": "7.85833",
    "website": "",
    "founded": "",
    "area_ha": "",
    "wikidata_url": "http://www.wikidata.org/entity/Q328848",
    "source": "Wikidata"
  },
  {
    "wikidata_id": "Q503498",
    "name": "Jerusalem Botanical Gardens",
    "country": "Israel",
    "latitude": "31.76873",
    "longitude": "35.200088",
    "website": "",
    "founded": "1954-01-01",
    "area_ha": "",
    "wikidata_url": "http://www.wikidata.org/entity/Q503498",
    "source": "Wikidata"
  },
  {
    "wikidata_id": "Q478245",
    "name": "Inhotim",
    "country": "Brazil",
    "latitude": "-20.124128",
    "longitude": "-44.218785",
    "website": "http://www.inhotim.org.br/",
    "founded": "2006-01-01",
    "area_ha": "",
    "wikidata_url": "http://www.wikidata.org/entity/Q478245",
    "source": "Wikidata"
  },
  {
    "wikidata_id": "Q94923",
    "name": "Botanical Garden of Curitiba",
    "country": "Brazil",
    "latitude": "-25.44277778",
    "longitude": "-49.23944444",
    "website": "http://www.turismo.curitiba.pr.gov.br/conteudo/jardim-botanico/1674",
    "founded": "",
    "area_ha": "",
    "wikidata_url": "http://www.wikidata.org/entity/Q94923",
    "source": "Wikidata"
  },
  {
    "wikidata_id": "Q202120",
    "name": "Luisenpark",
    "country": "Germany",
    "latitude": "49.4827",
    "longitude": "8.4974",
    "website": "https://www.luisenpark.de/",
    "founded": "1892-01-01",
    "area_ha": "",
    "wikidata_url": "http://www.wikidata.org/entity/Q202120",
    "source": "Wikidata"
  },
  {
    "wikidata_id": "Q323954",
    "name": "Leipzig Botanical Garden",
    "country": "Germany",
    "latitude": "51.3287",
    "longitude": "12.3913",
    "website": "https://www.lw.uni-leipzig.de/botanischer-garten",
    "founded": "1540-01-01",
    "area_ha": "",
    "wikidata_url": "http://www.wikidata.org/entity/Q323954",
    "source": "Wikidata"
  },
  {
    "wikidata_id": "Q437794",
    "name": "Old Botanical Garden at the Cologne Cathedral",
    "country": "Germany",
    "latitude": "",
    "longitude": "",
    "website": "",
    "founded": "",
    "area_ha": "",
    "wikidata_url": "http://www.wikidata.org/entity/Q437794",
    "source": "Wikidata"
  },
  {
    "wikidata_id": "Q538819",
    "name": "Memphis Botanic Garden",
    "country": "United States",
    "latitude": "35.1241",
    "longitude": "-89.9595",
    "website": "",
    "founded": "",
    "area_ha": "",
    "wikidata_url": "http://www.wikidata.org/entity/Q538819",
    "source": "Wikidata"
  },
  {
    "wikidata_id": "Q153748",
    "name": "Samara state university botanic garden",
    "country": "Russia",
    "latitude": "53.02",
    "longitude": "50.183",
    "website": "",
    "founded": "1932-08-01",
    "area_ha": "",
    "wikidata_url": "http://www.wikidata.org/entity/Q153748",
    "source": "Wikidata"
  },
  {
    "wikidata_id": "Q437790",
    "name": "Old Botanical Garden Marburg",
    "country": "Germany",
    "latitude": "50.8124",
    "longitude": "8.77236",
    "website": "",
    "founded": "1812-01-01",
    "area_ha": "",
    "wikidata_url": "http://www.wikidata.org/entity/Q437790",
    "source": "Wikidata"
  },
  {
    "wikidata_id": "Q428258",
    "name": "N.A. Avrorin Polar-Alpine Botanic Garden-Institute",
    "country": "Russia",
    "latitude": "67.652067",
    "longitude": "33.6667174",
    "website": "https://pabgi.ru/",
    "founded": "1931-01-01",
    "area_ha": "",
    "wikidata_url": "http://www.wikidata.org/entity/Q428258",
    "source": "Wikidata"
  },
  {
    "wikidata_id": "Q321565",
    "name": "Botanical Garden Potsdam",
    "country": "Germany",
    "latitude": "52.4041",
    "longitude": "13.0252",
    "website": "http://www.botanischer-garten-potsdam.de",
    "founded": "1950-01-01",
    "area_ha": "",
    "wikidata_url": "http://www.wikidata.org/entity/Q321565",
    "source": "Wikidata"
  },
  {
    "wikidata_id": "Q384815",
    "name": "East Texas Arboretum and Botanical Society",
    "country": "United States",
    "latitude": "32.2129",
    "longitude": "-95.8785",
    "website": "",
    "founded": "",
    "area_ha": "",
    "wikidata_url": "http://www.wikidata.org/entity/Q384815",
    "source": "Wikidata"
  },
  {
    "wikidata_id": "Q188617",
    "name": "Kew Gardens",
    "country": "United Kingdom",
    "latitude": "51.478888888",
    "longitude": "-0.293611111",
    "website": "https://www.kew.org/",
    "founded": "",
    "area_ha": "",
    "wikidata_url": "http://www.wikidata.org/entity/Q188617",
    "source": "Wikidata"
  },
  {
    "wikidata_id": "Q188617",
    "name": "Kew Gardens",
    "country": "United Kingdom",
    "latitude": "51.478888888",
    "longitude": "-0.293611111",
    "website": "http://www.kew.org/",
    "founded": "",
    "area_ha": "",
    "wikidata_url": "http://www.wikidata.org/entity/Q188617",
    "source": "Wikidata"
  },
  {
    "wikidata_id": "Q56046",
    "name": "Boxerwood Gardens",
    "country": "United States",
    "latitude": "38.4833",
    "longitude": "-78.85",
    "website": "",
    "founded": "",
    "area_ha": "",
    "wikidata_url": "http://www.wikidata.org/entity/Q56046",
    "source": "Wikidata"
  },
  {
    "wikidata_id": "Q256160",
    "name": "King's House on Schachen",
    "country": "Germany",
    "latitude": "47.419697222",
    "longitude": "11.112586111",
    "website": "https://www.schloesser.bayern.de/deutsch/schloss/objekte/schachen.htm",
    "founded": "1871-01-01",
    "area_ha": "",
    "wikidata_url": "http://www.wikidata.org/entity/Q256160",
    "source": "Wikidata"
  },
  {
    "wikidata_id": "Q509884",
    "name": "Australian National Botanic Gardens",
    "country": "Australia",
    "latitude": "-35.278888888",
    "longitude": "149.109166666",
    "website": "https://parksaustralia.gov.au/botanic-gardens/",
    "founded": "1949-01-01",
    "area_ha": "",
    "wikidata_url": "http://www.wikidata.org/entity/Q509884",
    "source": "Wikidata"
  },
  {
    "wikidata_id": "Q509884",
    "name": "Australian National Botanic Gardens",
    "country": "Australia",
    "latitude": "-35.278888888",
    "longitude": "149.109166666",
    "website": "https://www.anbg.gov.au/gardens/index.html",
    "founded": "1949-01-01",
    "area_ha": "",
    "wikidata_url": "http://www.wikidata.org/entity/Q509884",
    "source": "Wikidata"
  },
  {
    "wikidata_id": "Q475580",
    "name": "Botanischer Garten Karlsruhe",
    "country": "Germany",
    "latitude": "49.0131",
    "longitude": "8.40044",
    "website": "",
    "founded": "1808-01-01",
    "area_ha": "",
    "wikidata_url": "http://www.wikidata.org/entity/Q475580",
    "source": "Wikidata"
  },
  {
    "wikidata_id": "Q517377",
    "name": "Jardin botanique de la Font de Bézombes",
    "country": "France",
    "latitude": "43.65055556",
    "longitude": "3.50416667",
    "website": "https://www.saintguilhem-valleeherault.fr/annuaire/jardin-botanique-de-la-font-de-bezombes.html",
    "founded": "",
    "area_ha": "",
    "wikidata_url": "http://www.wikidata.org/entity/Q517377",
    "source": "Wikidata"
  },
  {
    "wikidata_id": "Q153541",
    "name": "Botanical Garden of Mérida",
    "country": "Venezuela",
    "latitude": "8.623694444",
    "longitude": "-71.144111111",
    "website": "http://www.botanica.ciens.ula.ve/",
    "founded": "1991-01-01",
    "area_ha": "",
    "wikidata_url": "http://www.wikidata.org/entity/Q153541",
    "source": "Wikidata"
  },
  {
    "wikidata_id": "Q153256",
    "name": "Ruth Bancroft Garden",
    "country": "United States",
    "latitude": "37.9238",
    "longitude": "-122.037",
    "website": "",
    "founded": "",
    "area_ha": "",
    "wikidata_url": "http://www.wikidata.org/entity/Q153256",
    "source": "Wikidata"
  },
  {
    "wikidata_id": "Q323124",
    "name": "Botanischer Garten Erlangen",
    "country": "Germany",
    "latitude": "49.5992",
    "longitude": "11.0067",
    "website": "",
    "founded": "",
    "area_ha": "",
    "wikidata_url": "http://www.wikidata.org/entity/Q323124",
    "source": "Wikidata"
  },
  {
    "wikidata_id": "Q533156",
    "name": "Villa Carlotta",
    "country": "Italy",
    "latitude": "45.9864",
    "longitude": "9.230838888",
    "website": "https://www.villacarlotta.it/",
    "founded": "1600-01-01",
    "area_ha": "",
    "wikidata_url": "http://www.wikidata.org/entity/Q533156",
    "source": "Wikidata"
  },
  {
    "wikidata_id": "Q533156",
    "name": "Villa Carlotta",
    "country": "Italy",
    "latitude": "45.9864",
    "longitude": "9.230838888",
    "website": "https://www.villacarlotta.it/en/",
    "founded": "1600-01-01",
    "area_ha": "",
    "wikidata_url": "http://www.wikidata.org/entity/Q533156",
    "source": "Wikidata"
  },
  {
    "wikidata_id": "Q533156",
    "name": "Villa Carlotta",
    "country": "Italy",
    "latitude": "45.9864",
    "longitude": "9.230838888",
    "website": "https://www.villacarlotta.it/",
    "founded": "1600-01-01",
    "area_ha": "",
    "wikidata_url": "http://www.wikidata.org/entity/Q533156",
    "source": "Wikidata"
  },
  {
    "wikidata_id": "Q533156",
    "name": "Villa Carlotta",
    "country": "Italy",
    "latitude": "45.9864",
    "longitude": "9.230838888",
    "website": "https://www.villacarlotta.it/en/",
    "founded": "1600-01-01",
    "area_ha": "",
    "wikidata_url": "http://www.wikidata.org/entity/Q533156",
    "source": "Wikidata"
  },
  {
    "wikidata_id": "Q63203",
    "name": "Hiroshima Botanical Garden",
    "country": "Japan",
    "latitude": "34.39191667",
    "longitude": "132.34694444",
    "website": "http://www.hiroshima-bot.jp/",
    "founded": "",
    "area_ha": "",
    "wikidata_url": "http://www.wikidata.org/entity/Q63203",
    "source": "Wikidata"
  },
  {
    "wikidata_id": "Q63203",
    "name": "Hiroshima Botanical Garden",
    "country": "Japan",
    "latitude": "34.39191667",
    "longitude": "132.34694444",
    "website": "http://www.hiroshima-bot.jp/english/",
    "founded": "",
    "area_ha": "",
    "wikidata_url": "http://www.wikidata.org/entity/Q63203",
    "source": "Wikidata"
  },
  {
    "wikidata_id": "Q317714",
    "name": "Botanischer Garten Jena",
    "country": "Germany",
    "latitude": "50.9311",
    "longitude": "11.5861",
    "website": "https://www.botanischergarten.uni-jena.de/",
    "founded": "",
    "area_ha": "",
    "wikidata_url": "http://www.wikidata.org/entity/Q317714",
    "source": "Wikidata"
  },
  {
    "wikidata_id": "Q4998",
    "name": "Ringve Botanical Garden",
    "country": "Norway",
    "latitude": "63.4483",
    "longitude": "10.4523",
    "website": "",
    "founded": "",
    "area_ha": "",
    "wikidata_url": "http://www.wikidata.org/entity/Q4998",
    "source": "Wikidata"
  },
  {
    "wikidata_id": "Q558491",
    "name": "Fell Arboretum",
    "country": "United States",
    "latitude": "40.5108",
    "longitude": "-88.9935",
    "website": "https://arboretum.illinoisstate.edu",
    "founded": "",
    "area_ha": "",
    "wikidata_url": "http://www.wikidata.org/entity/Q558491",
    "source": "Wikidata"
  },
  {
    "wikidata_id": "Q321575",
    "name": "Botanischer Garten der Technischen Universität Dresden",
    "country": "Germany",
    "latitude": "51.04302",
    "longitude": "13.75856",
    "website": "https://tu-dresden.de/bg",
    "founded": "1820-01-01",
    "area_ha": "",
    "wikidata_url": "http://www.wikidata.org/entity/Q321575",
    "source": "Wikidata"
  },
  {
    "wikidata_id": "Q477368",
    "name": "Glendurgan Garden",
    "country": "United Kingdom",
    "latitude": "50.1066",
    "longitude": "-5.11726",
    "website": "https://www.nationaltrust.org.uk/glendurgan-garden/",
    "founded": "",
    "area_ha": "",
    "wikidata_url": "http://www.wikidata.org/entity/Q477368",
    "source": "Wikidata"
  },
  {
    "wikidata_id": "Q427979",
    "name": "Belize Botanic Gardens",
    "country": "Belize",
    "latitude": "17.083333333",
    "longitude": "-89.066666666",
    "website": "http://belizebotanic.org/",
    "founded": "1997-01-01",
    "area_ha": "",
    "wikidata_url": "http://www.wikidata.org/entity/Q427979",
    "source": "Wikidata"
  },
  {
    "wikidata_id": "Q174823",
    "name": "Ökologisch-Botanischer Garten der Universität Bayreuth",
    "country": "Germany",
    "latitude": "49.9235",
    "longitude": "11.5854",
    "website": "",
    "founded": "",
    "area_ha": "",
    "wikidata_url": "http://www.wikidata.org/entity/Q174823",
    "source": "Wikidata"
  },
  {
    "wikidata_id": "Q559261",
    "name": "Washington Park",
    "country": "United States",
    "latitude": "39.789921",
    "longitude": "-89.675055",
    "website": "https://www.springfieldparks.org/locations/40/washington-park/springfield/location-details",
    "founded": "1901-01-01",
    "area_ha": "",
    "wikidata_url": "http://www.wikidata.org/entity/Q559261",
    "source": "Wikidata"
  },
  {
    "wikidata_id": "Q320082",
    "name": "Flora und Botanischer Garten Köln",
    "country": "Germany",
    "latitude": "50.95932",
    "longitude": "6.97194",
    "website": "https://www.stadt-koeln.de/artikel/20040/index.html",
    "founded": "1864-01-01",
    "area_ha": "",
    "wikidata_url": "http://www.wikidata.org/entity/Q320082",
    "source": "Wikidata"
  },
  {
    "wikidata_id": "Q320082",
    "name": "Flora und Botanischer Garten Köln",
    "country": "Germany",
    "latitude": "50.95932",
    "longitude": "6.97194",
    "website": "https://www.stadt-koeln.de/leben-in-koeln/freizeit-natur-sport/parks/adresse-oeffnungszeiten-flora-botanischer-garten",
    "founded": "1864-01-01",
    "area_ha": "",
    "wikidata_url": "http://www.wikidata.org/entity/Q320082",
    "source": "Wikidata"
  },
  {
    "wikidata_id": "Q262120",
    "name": "Olive Pink Botanic Garden",
    "country": "Australia",
    "latitude": "-23.7064",
    "longitude": "133.885",
    "website": "http://opbg.com.au",
    "founded": "1956-01-01",
    "area_ha": "",
    "wikidata_url": "http://www.wikidata.org/entity/Q262120",
    "source": "Wikidata"
  },
  {
    "wikidata_id": "Q528505",
    "name": "Rotary Botanical Gardens",
    "country": "United States",
    "latitude": "42.6839",
    "longitude": "-89.0164",
    "website": "",
    "founded": "",
    "area_ha": "",
    "wikidata_url": "http://www.wikidata.org/entity/Q528505",
    "source": "Wikidata"
  },
  {
    "wikidata_id": "Q510585",
    "name": "Albury Botanic Gardens",
    "country": "Australia",
    "latitude": "-36.081",
    "longitude": "146.909",
    "website": "",
    "founded": "1877-01-01",
    "area_ha": "",
    "wikidata_url": "http://www.wikidata.org/entity/Q510585",
    "source": "Wikidata"
  },
  {
    "wikidata_id": "Q446505",
    "name": "Europa-Rosarium",
    "country": "Germany",
    "latitude": "51.4752",
    "longitude": "11.3148",
    "website": "",
    "founded": "1899-01-01",
    "area_ha": "",
    "wikidata_url": "http://www.wikidata.org/entity/Q446505",
    "source": "Wikidata"
  },
  {
    "wikidata_id": "Q574773",
    "name": "Herrenhausen Gardens",
    "country": "Germany",
    "latitude": "52.391666666",
    "longitude": "9.698333333",
    "website": "",
    "founded": "",
    "area_ha": "",
    "wikidata_url": "http://www.wikidata.org/entity/Q574773",
    "source": "Wikidata"
  },
  {
    "wikidata_id": "Q195786",
    "name": "Prague Botanical Garden",
    "country": "Czech Republic",
    "latitude": "50.1187",
    "longitude": "14.4154",
    "website": "http://www.botanicka.cz/hlavni-stranka.html?page_id=95",
    "founded": "1969-01-01",
    "area_ha": "",
    "wikidata_url": "http://www.wikidata.org/entity/Q195786",
    "source": "Wikidata"
  },
  {
    "wikidata_id": "Q536819",
    "name": "Lauritzen Gardens",
    "country": "United States",
    "latitude": "41.2369",
    "longitude": "-95.9162",
    "website": "http://www.omahabotanicalgardens.org/",
    "founded": "1982-01-01",
    "area_ha": "",
    "wikidata_url": "http://www.wikidata.org/entity/Q536819",
    "source": "Wikidata"
  },
  {
    "wikidata_id": "Q431309",
    "name": "Cosmovitral",
    "country": "Mexico",
    "latitude": "19.29354",
    "longitude": "-99.65371",
    "website": "http://patrimonioyserviciosc.edomex.gob.mx/cosmovitral",
    "founded": "1980-07-05",
    "area_ha": "",
    "wikidata_url": "http://www.wikidata.org/entity/Q431309",
    "source": "Wikidata"
  },
  {
    "wikidata_id": "Q437788",
    "name": "Old Botanical Garden, Kiel",
    "country": "Germany",
    "latitude": "54.3308",
    "longitude": "10.1469",
    "website": "",
    "founded": "",
    "area_ha": "",
    "wikidata_url": "http://www.wikidata.org/entity/Q437788",
    "source": "Wikidata"
  },
  {
    "wikidata_id": "Q373040",
    "name": "Parc botanique de Kerbihan",
    "country": "France",
    "latitude": "47.806",
    "longitude": "-3.2677",
    "website": "",
    "founded": "",
    "area_ha": "",
    "wikidata_url": "http://www.wikidata.org/entity/Q373040",
    "source": "Wikidata"
  },
  {
    "wikidata_id": "Q163255",
    "name": "Botanic Garden and Botanical Museum Berlin",
    "country": "Germany",
    "latitude": "52.455",
    "longitude": "13.3036",
    "website": "https://www.bo.berlin/",
    "founded": "1897-01-01",
    "area_ha": "",
    "wikidata_url": "http://www.wikidata.org/entity/Q163255",
    "source": "Wikidata"
  },
  {
    "wikidata_id": "Q533156",
    "name": "Villa Carlotta",
    "country": "Italy",
    "latitude": "45.9864",
    "longitude": "9.230838888",
    "website": "https://www.villacarlotta.it/",
    "founded": "1700-01-01",
    "area_ha": "",
    "wikidata_url": "http://www.wikidata.org/entity/Q533156",
    "source": "Wikidata"
  },
  {
    "wikidata_id": "Q533156",
    "name": "Villa Carlotta",
    "country": "Italy",
    "latitude": "45.9864",
    "longitude": "9.230838888",
    "website": "https://www.villacarlotta.it/en/",
    "founded": "1700-01-01",
    "area_ha": "",
    "wikidata_url": "http://www.wikidata.org/entity/Q533156",
    "source": "Wikidata"
  },
  {
    "wikidata_id": "Q533156",
    "name": "Villa Carlotta",
    "country": "Italy",
    "latitude": "45.9864",
    "longitude": "9.230838888",
    "website": "https://www.villacarlotta.it/",
    "founded": "1700-01-01",
    "area_ha": "",
    "wikidata_url": "http://www.wikidata.org/entity/Q533156",
    "source": "Wikidata"
  },
  {
    "wikidata_id": "Q533156",
    "name": "Villa Carlotta",
    "country": "Italy",
    "latitude": "45.9864",
    "longitude": "9.230838888",
    "website": "https://www.villacarlotta.it/en/",
    "founded": "1700-01-01",
    "area_ha": "",
    "wikidata_url": "http://www.wikidata.org/entity/Q533156",
    "source": "Wikidata"
  },
  {
    "wikidata_id": "Q24185",
    "name": "Exbury Gardens",
    "country": "United Kingdom",
    "latitude": "50.7986",
    "longitude": "-1.4005",
    "website": "https://www.exbury.co.uk/",
    "founded": "",
    "area_ha": "",
    "wikidata_url": "http://www.wikidata.org/entity/Q24185",
    "source": "Wikidata"
  },
  {
    "wikidata_id": "Q2835200",
    "name": "Jardin botanique du Château de Vauville",
    "country": "France",
    "latitude": "49.635",
    "longitude": "-1.845277777",
    "website": "https://www.jardin-vauville.fr/",
    "founded": "",
    "area_ha": "",
    "wikidata_url": "http://www.wikidata.org/entity/Q2835200",
    "source": "Wikidata"
  },
  {
    "wikidata_id": "Q2840327",
    "name": "Q2840327",
    "country": "Spain",
    "latitude": "37.7",
    "longitude": "-2.2",
    "website": "",
    "founded": "",
    "area_ha": "",
    "wikidata_url": "http://www.wikidata.org/entity/Q2840327",
    "source": "Wikidata"
  },
  {
    "wikidata_id": "Q2916832",
    "name": "Botanical Garden of the Apuan Alps \\",
    "country": "Italy",
    "latitude": "44.05789722",
    "longitude": "10.19070278",
    "website": "http://www.parcapuane.toscana.it",
    "founded": "",
    "area_ha": "",
    "wikidata_url": "http://www.wikidata.org/entity/Q2916832",
    "source": "Wikidata"
  },
  {
    "wikidata_id": "Q2916832",
    "name": "Botanical Garden of the Apuan Alps \\",
    "country": "Italy",
    "latitude": "44.05789722",
    "longitude": "10.19070278",
    "website": "http://www.parcapuane.toscana.it/orto/1_Giardino.asp?sb=3&cap=3",
    "founded": "",
    "area_ha": "",
    "wikidata_url": "http://www.wikidata.org/entity/Q2916832",
    "source": "Wikidata"
  },
  {
    "wikidata_id": "Q2843537",
    "name": "Henry Foundation for Botanical Research",
    "country": "United States",
    "latitude": "40.0333",
    "longitude": "-75.2833",
    "website": "",
    "founded": "",
    "area_ha": "",
    "wikidata_url": "http://www.wikidata.org/entity/Q2843537",
    "source": "Wikidata"
  },
  {
    "wikidata_id": "Q2892452",
    "name": "Q2892452",
    "country": "Mexico",
    "latitude": "",
    "longitude": "",
    "website": "",
    "founded": "",
    "area_ha": "",
    "wikidata_url": "http://www.wikidata.org/entity/Q2892452",
    "source": "Wikidata"
  },
  {
    "wikidata_id": "Q2882456",
    "name": "Orto Botanico di Brera",
    "country": "Italy",
    "latitude": "45.471024283",
    "longitude": "9.189242925",
    "website": "http://ortibotanici.unimi.it/en/",
    "founded": "1774-01-01",
    "area_ha": "",
    "wikidata_url": "http://www.wikidata.org/entity/Q2882456",
    "source": "Wikidata"
  },
  {
    "wikidata_id": "Q2882456",
    "name": "Orto Botanico di Brera",
    "country": "Italy",
    "latitude": "45.471024283",
    "longitude": "9.189242925",
    "website": "http://ortibotanici.unimi.it/it/",
    "founded": "1774-01-01",
    "area_ha": "",
    "wikidata_url": "http://www.wikidata.org/entity/Q2882456",
    "source": "Wikidata"
  },
  {
    "wikidata_id": "Q2876503",
    "name": "Giardino delle Orchidee Spontanee del Mediterraneo",
    "country": "Italy",
    "latitude": "41.95",
    "longitude": "12.08333333",
    "website": "",
    "founded": "",
    "area_ha": "",
    "wikidata_url": "http://www.wikidata.org/entity/Q2876503",
    "source": "Wikidata"
  },
  {
    "wikidata_id": "Q3003810",
    "name": "Denver Botanic Gardens",
    "country": "United States",
    "latitude": "39.7325",
    "longitude": "-104.960833",
    "website": "http://www.botanicgardens.org/",
    "founded": "1951-01-01",
    "area_ha": "",
    "wikidata_url": "http://www.wikidata.org/entity/Q3003810",
    "source": "Wikidata"
  },
  {
    "wikidata_id": "Q3048736",
    "name": "Edwards Gardens",
    "country": "Canada",
    "latitude": "43.7339",
    "longitude": "-79.3594",
    "website": "http://www.toronto.ca/parks/prd/facilities/complex/473/index.htm",
    "founded": "",
    "area_ha": "",
    "wikidata_url": "http://www.wikidata.org/entity/Q3048736",
    "source": "Wikidata"
  },
  {
    "wikidata_id": "Q2859693",
    "name": "Arboretum Marcel Kroenlein",
    "country": "France",
    "latitude": "44.096111111",
    "longitude": "7.088333333",
    "website": "https://arboretum-roure.org/",
    "founded": "1987-01-01",
    "area_ha": "",
    "wikidata_url": "http://www.wikidata.org/entity/Q2859693",
    "source": "Wikidata"
  },
  {
    "wikidata_id": "Q2994479",
    "name": "National Alpine Botanical Conservatory",
    "country": "France",
    "latitude": "44.5763",
    "longitude": "6.0513",
    "website": "http://www.cbn-alpin.fr/",
    "founded": "",
    "area_ha": "",
    "wikidata_url": "http://www.wikidata.org/entity/Q2994479",
    "source": "Wikidata"
  },
  {
    "wikidata_id": "Q3034795",
    "name": "Ljubljana Botanical Garden",
    "country": "Slovenia",
    "latitude": "46.040173027",
    "longitude": "14.514429395",
    "website": "http://www.botanicni-vrt.si",
    "founded": "1810-01-01",
    "area_ha": "",
    "wikidata_url": "http://www.wikidata.org/entity/Q3034795",
    "source": "Wikidata"
  },
  {
    "wikidata_id": "Q2689422",
    "name": "Tasmanian Bushland Garden",
    "country": "Australia",
    "latitude": "-42.6078",
    "longitude": "147.717",
    "website": "",
    "founded": "",
    "area_ha": "",
    "wikidata_url": "http://www.wikidata.org/entity/Q2689422",
    "source": "Wikidata"
  },
  {
    "wikidata_id": "Q2859691",
    "name": "Arboretum Gaston Allard",
    "country": "France",
    "latitude": "47.451",
    "longitude": "-0.5425",
    "website": "",
    "founded": "",
    "area_ha": "",
    "wikidata_url": "http://www.wikidata.org/entity/Q2859691",
    "source": "Wikidata"
  },
  {
    "wikidata_id": "Q2834322",
    "name": "Serres municipales de Sens",
    "country": "France",
    "latitude": "48.1858",
    "longitude": "3.279",
    "website": "",
    "founded": "",
    "area_ha": "",
    "wikidata_url": "http://www.wikidata.org/entity/Q2834322",
    "source": "Wikidata"
  },
  {
    "wikidata_id": "Q2859703",
    "name": "Arboretum de Balaine",
    "country": "France",
    "latitude": "46.697",
    "longitude": "3.2464",
    "website": "http://www.arboretum-balaine.com/",
    "founded": "1804-01-01",
    "area_ha": "",
    "wikidata_url": "http://www.wikidata.org/entity/Q2859703",
    "source": "Wikidata"
  },
  {
    "wikidata_id": "Q2859711",
    "name": "Arboretum de la Fosse",
    "country": "France",
    "latitude": "47.776436",
    "longitude": "0.846462",
    "website": "https://www.arboretumdelafosse.com/en",
    "founded": "",
    "area_ha": "",
    "wikidata_url": "http://www.wikidata.org/entity/Q2859711",
    "source": "Wikidata"
  },
  {
    "wikidata_id": "Q2859705",
    "name": "Arboretum de La Roche-Guyon",
    "country": "France",
    "latitude": "49.09888889",
    "longitude": "1.63972222",
    "website": "",
    "founded": "",
    "area_ha": "",
    "wikidata_url": "http://www.wikidata.org/entity/Q2859705",
    "source": "Wikidata"
  },
  {
    "wikidata_id": "Q2859716",
    "name": "Arboretum de la Vallée-aux-Loups",
    "country": "France",
    "latitude": "48.77165",
    "longitude": "2.27049",
    "website": "http://maison-de-chateaubriand.hauts-de-seine.net/web/chateaubriand/le-parc-de-la-maison-de-chateaubriand",
    "founded": "",
    "area_ha": "",
    "wikidata_url": "http://www.wikidata.org/entity/Q2859716",
    "source": "Wikidata"
  },
  {
    "wikidata_id": "Q2744187",
    "name": "Allerton Garden",
    "country": "United States",
    "latitude": "21.88567",
    "longitude": "-159.49283",
    "website": "",
    "founded": "1986-01-01",
    "area_ha": "",
    "wikidata_url": "http://www.wikidata.org/entity/Q2744187",
    "source": "Wikidata"
  },
  {
    "wikidata_id": "Q2894419",
    "name": "Jardin Musée de Limeuil",
    "country": "France",
    "latitude": "44.88638889",
    "longitude": "0.88916667",
    "website": "",
    "founded": "",
    "area_ha": "",
    "wikidata_url": "http://www.wikidata.org/entity/Q2894419",
    "source": "Wikidata"
  },
  {
    "wikidata_id": "Q2896269",
    "name": "Robert Allerton Park",
    "country": "United States",
    "latitude": "39.998",
    "longitude": "-88.65",
    "website": "",
    "founded": "",
    "area_ha": "",
    "wikidata_url": "http://www.wikidata.org/entity/Q2896269",
    "source": "Wikidata"
  },
  {
    "wikidata_id": "Q2919730",
    "name": "Chicago Botanic Garden",
    "country": "United States",
    "latitude": "42.148333333",
    "longitude": "-87.79",
    "website": "https://www.chicagobotanic.org/",
    "founded": "1972-01-01",
    "area_ha": "",
    "wikidata_url": "http://www.wikidata.org/entity/Q2919730",
    "source": "Wikidata"
  },
  {
    "wikidata_id": "Q2836812",
    "name": "Orto Botanico Comunale di Lucca",
    "country": "Italy",
    "latitude": "43.84144722",
    "longitude": "10.51143056",
    "website": "http://www.operadellemura.it/parcodellemura/botanico_presentazione.asp",
    "founded": "1820-01-01",
    "area_ha": "",
    "wikidata_url": "http://www.wikidata.org/entity/Q2836812",
    "source": "Wikidata"
  },
  {
    "wikidata_id": "Q2859719",
    "name": "Arboretum du Sarroudier",
    "country": "France",
    "latitude": "43.7755",
    "longitude": "7.4755",
    "website": "",
    "founded": "",
    "area_ha": "",
    "wikidata_url": "http://www.wikidata.org/entity/Q2859719",
    "source": "Wikidata"
  },
  {
    "wikidata_id": "Q2859688",
    "name": "Q2859688",
    "country": "France",
    "latitude": "48.424409",
    "longitude": "0.076636",
    "website": "",
    "founded": "",
    "area_ha": "",
    "wikidata_url": "http://www.wikidata.org/entity/Q2859688",
    "source": "Wikidata"
  },
  {
    "wikidata_id": "Q2859692",
    "name": "Arboretum Robert Ruffier-Lanche",
    "country": "France",
    "latitude": "45.194167",
    "longitude": "5.777778",
    "website": "",
    "founded": "",
    "area_ha": "",
    "wikidata_url": "http://www.wikidata.org/entity/Q2859692",
    "source": "Wikidata"
  },
  {
    "wikidata_id": "Q3064716",
    "name": "Botaniska trädgården",
    "country": "Sweden",
    "latitude": "55.70388889",
    "longitude": "13.20277778",
    "website": "http://www.botaniskatradgarden.se/",
    "founded": "1867-01-01",
    "area_ha": "",
    "wikidata_url": "http://www.wikidata.org/entity/Q3064716",
    "source": "Wikidata"
  },
  {
    "wikidata_id": "Q2859707",
    "name": "Arboretum de Grignon",
    "country": "France",
    "latitude": "48.8476",
    "longitude": "1.9433",
    "website": "",
    "founded": "",
    "area_ha": "",
    "wikidata_url": "http://www.wikidata.org/entity/Q2859707",
    "source": "Wikidata"
  },
  {
    "wikidata_id": "Q2859701",
    "name": "Arboretum d'Amance",
    "country": "France",
    "latitude": "48.7513",
    "longitude": "6.336",
    "website": "https://www.arboretum-amance.fr/",
    "founded": "1900-10-19",
    "area_ha": "",
    "wikidata_url": "http://www.wikidata.org/entity/Q2859701",
    "source": "Wikidata"
  },
  {
    "wikidata_id": "Q2739331",
    "name": "Jardin des Plantes d'Angers",
    "country": "France",
    "latitude": "47.4748",
    "longitude": "-0.5445",
    "website": "",
    "founded": "1740-01-01",
    "area_ha": "",
    "wikidata_url": "http://www.wikidata.org/entity/Q2739331",
    "source": "Wikidata"
  },
  {
    "wikidata_id": "Q2743795",
    "name": "Jardin botanique de l'Université de Strasbourg",
    "country": "France",
    "latitude": "48.583611111",
    "longitude": "7.766666666",
    "website": "http://jardin-botanique.unistra.fr",
    "founded": "",
    "area_ha": "",
    "wikidata_url": "http://www.wikidata.org/entity/Q2743795",
    "source": "Wikidata"
  },
  {
    "wikidata_id": "Q2859709",
    "name": "Arboretum de l'Hort de Dieu",
    "country": "France",
    "latitude": "44.116977777",
    "longitude": "3.583038888",
    "website": "",
    "founded": "",
    "area_ha": "",
    "wikidata_url": "http://www.wikidata.org/entity/Q2859709",
    "source": "Wikidata"
  },
  {
    "wikidata_id": "Q2859717",
    "name": "Poërop Arboretum",
    "country": "France",
    "latitude": "48.357",
    "longitude": "-3.74",
    "website": "",
    "founded": "",
    "area_ha": "",
    "wikidata_url": "http://www.wikidata.org/entity/Q2859717",
    "source": "Wikidata"
  },
  {
    "wikidata_id": "Q2919885",
    "name": "Q2919885",
    "country": "Ecuador",
    "latitude": "-2.0798505",
    "longitude": "-79.9087754",
    "website": "",
    "founded": "",
    "area_ha": "",
    "wikidata_url": "http://www.wikidata.org/entity/Q2919885",
    "source": "Wikidata"
  },
  {
    "wikidata_id": "Q2994486",
    "name": "Botanical Conservatory of Brest",
    "country": "France",
    "latitude": "48.4021",
    "longitude": "-4.4473",
    "website": "http://www.cbnbrest.fr/",
    "founded": "1975-01-01",
    "area_ha": "",
    "wikidata_url": "http://www.wikidata.org/entity/Q2994486",
    "source": "Wikidata"
  },
  {
    "wikidata_id": "Q2879615",
    "name": "Munda Wanga Trust Botanical Garden",
    "country": "Zambia",
    "latitude": "-15.41666667",
    "longitude": "28.28333333",
    "website": "",
    "founded": "",
    "area_ha": "",
    "wikidata_url": "http://www.wikidata.org/entity/Q2879615",
    "source": "Wikidata"
  },
  {
    "wikidata_id": "Q2878518",
    "name": "Central Botanical Garden",
    "country": "North Korea",
    "latitude": "39.06816",
    "longitude": "125.81704",
    "website": "",
    "founded": "",
    "area_ha": "",
    "wikidata_url": "http://www.wikidata.org/entity/Q2878518",
    "source": "Wikidata"
  },
  {
    "wikidata_id": "Q2759819",
    "name": "Botanical Research Institute of Texas",
    "country": "United States",
    "latitude": "32.741944444",
    "longitude": "-97.362777777",
    "website": "http://www.brit.org/",
    "founded": "",
    "area_ha": "",
    "wikidata_url": "http://www.wikidata.org/entity/Q2759819",
    "source": "Wikidata"
  },
  {
    "wikidata_id": "Q3046409",
    "name": "Singapore Botanic Gardens",
    "country": "Singapore",
    "latitude": "1.3151",
    "longitude": "103.8162",
    "website": "https://www.nparks.gov.sg/sbg/",
    "founded": "1859-01-01",
    "area_ha": "",
    "wikidata_url": "http://www.wikidata.org/entity/Q3046409",
    "source": "Wikidata"
  },
  {
    "wikidata_id": "Q3046409",
    "name": "Singapore Botanic Gardens",
    "country": "Singapore",
    "latitude": "1.3151",
    "longitude": "103.8162",
    "website": "https://www.nparks.gov.sg/sbg/",
    "founded": "1859-01-01",
    "area_ha": "",
    "wikidata_url": "http://www.wikidata.org/entity/Q3046409",
    "source": "Wikidata"
  },
  {
    "wikidata_id": "Q2745210",
    "name": "Mitchell Park Horticultural Conservatory",
    "country": "United States",
    "latitude": "43.0264",
    "longitude": "-87.946",
    "website": "",
    "founded": "",
    "area_ha": "",
    "wikidata_url": "http://www.wikidata.org/entity/Q2745210",
    "source": "Wikidata"
  },
  {
    "wikidata_id": "Q2689996",
    "name": "TU Delft Hortus Botanicus",
    "country": "Netherlands",
    "latitude": "52.0075",
    "longitude": "4.371111",
    "website": "https://www.tudelft.nl/hortus-botanicus/",
    "founded": "1917-01-01",
    "area_ha": "",
    "wikidata_url": "http://www.wikidata.org/entity/Q2689996",
    "source": "Wikidata"
  },
  {
    "wikidata_id": "Q3075676",
    "name": "Kaisaniemi Botanic Garden",
    "country": "Finland",
    "latitude": "60.1722",
    "longitude": "24.9475",
    "website": "https://www.luomus.fi/en/kaisaniemi-botanic-garden",
    "founded": "1829-01-01",
    "area_ha": "",
    "wikidata_url": "http://www.wikidata.org/entity/Q3075676",
    "source": "Wikidata"
  },
  {
    "wikidata_id": "Q3075676",
    "name": "Kaisaniemi Botanic Garden",
    "country": "Finland",
    "latitude": "60.1722",
    "longitude": "24.9475",
    "website": "https://www.luomus.fi/fi/kaisaniemen-kasvitieteellinen-puutarha",
    "founded": "1829-01-01",
    "area_ha": "",
    "wikidata_url": "http://www.wikidata.org/entity/Q3075676",
    "source": "Wikidata"
  },
  {
    "wikidata_id": "Q3075676",
    "name": "Kaisaniemi Botanic Garden",
    "country": "Finland",
    "latitude": "60.1722",
    "longitude": "24.9475",
    "website": "https://www.luomus.fi/sv/kajsaniemi-botaniska-tradgard",
    "founded": "1829-01-01",
    "area_ha": "",
    "wikidata_url": "http://www.wikidata.org/entity/Q3075676",
    "source": "Wikidata"
  },
  {
    "wikidata_id": "Q2994484",
    "name": "National Botanical Conservatory of Bailleul",
    "country": "France",
    "latitude": "50.74666667",
    "longitude": "2.75305556",
    "website": "https://www.cbnbl.org/",
    "founded": "",
    "area_ha": "",
    "wikidata_url": "http://www.wikidata.org/entity/Q2994484",
    "source": "Wikidata"
  },
  {
    "wikidata_id": "Q2859694",
    "name": "Arboretum Saint-Antoine",
    "country": "France",
    "latitude": "48.041666666",
    "longitude": "3.911944444",
    "website": "",
    "founded": "",
    "area_ha": "",
    "wikidata_url": "http://www.wikidata.org/entity/Q2859694",
    "source": "Wikidata"
  },
  {
    "wikidata_id": "Q3034600",
    "name": "Domaine du Café Grillé",
    "country": "France",
    "latitude": "-21.30676",
    "longitude": "55.42335",
    "website": "https://www.domaineducafegrille.fr/",
    "founded": "",
    "area_ha": "",
    "wikidata_url": "http://www.wikidata.org/entity/Q3034600",
    "source": "Wikidata"
  },
  {
    "wikidata_id": "Q3068815",
    "name": "Jardin botanique littoral Paul Jovet",
    "country": "France",
    "latitude": "43.4043",
    "longitude": "-1.6512",
    "website": "http://jardinbotanique-saintjeandeluz.fr/",
    "founded": "",
    "area_ha": "",
    "wikidata_url": "http://www.wikidata.org/entity/Q3068815",
    "source": "Wikidata"
  },
  {
    "wikidata_id": "Q2887063",
    "name": "Huckleberry Botanic Regional Preserve",
    "country": "United States",
    "latitude": "37.845",
    "longitude": "-122.19",
    "website": "",
    "founded": "",
    "area_ha": "",
    "wikidata_url": "http://www.wikidata.org/entity/Q2887063",
    "source": "Wikidata"
  },
  {
    "wikidata_id": "Q3026688",
    "name": "Zoo Miami",
    "country": "United States",
    "latitude": "25.61",
    "longitude": "-80.4",
    "website": "https://www.zoomiami.org/",
    "founded": "1948-01-01",
    "area_ha": "",
    "wikidata_url": "http://www.wikidata.org/entity/Q3026688",
    "source": "Wikidata"
  },
  {
    "wikidata_id": "Q2842754",
    "name": "Hokkaido University Botanical Gardens",
    "country": "Japan",
    "latitude": "43.063892",
    "longitude": "141.3426479",
    "website": "https://www.hokudai.ac.jp/fsc/bg/",
    "founded": "",
    "area_ha": "",
    "wikidata_url": "http://www.wikidata.org/entity/Q2842754",
    "source": "Wikidata"
  },
  {
    "wikidata_id": "Q2842754",
    "name": "Hokkaido University Botanical Gardens",
    "country": "Japan",
    "latitude": "43.063892",
    "longitude": "141.3426479",
    "website": "https://www.hokudai.ac.jp/fsc/bg/index_e.html",
    "founded": "",
    "area_ha": "",
    "wikidata_url": "http://www.wikidata.org/entity/Q2842754",
    "source": "Wikidata"
  },
  {
    "wikidata_id": "Q2886410",
    "name": "Lotusland",
    "country": "United States",
    "latitude": "34.443",
    "longitude": "-119.657",
    "website": "",
    "founded": "",
    "area_ha": "",
    "wikidata_url": "http://www.wikidata.org/entity/Q2886410",
    "source": "Wikidata"
  },
  {
    "wikidata_id": "Q2836840",
    "name": "Q2836840",
    "country": "Pakistan",
    "latitude": "31.41649983",
    "longitude": "73.0772",
    "website": "",
    "founded": "",
    "area_ha": "",
    "wikidata_url": "http://www.wikidata.org/entity/Q2836840",
    "source": "Wikidata"
  },
  {
    "wikidata_id": "Q2843476",
    "name": "Rio Grande Botanic Garden",
    "country": "United States",
    "latitude": "35.0933",
    "longitude": "-106.681",
    "website": "",
    "founded": "",
    "area_ha": "",
    "wikidata_url": "http://www.wikidata.org/entity/Q2843476",
    "source": "Wikidata"
  },
  {
    "wikidata_id": "Q3003810",
    "name": "Denver Botanic Gardens",
    "country": "United States",
    "latitude": "39.732265514",
    "longitude": "-104.960619226",
    "website": "http://www.botanicgardens.org/",
    "founded": "1951-01-01",
    "area_ha": "",
    "wikidata_url": "http://www.wikidata.org/entity/Q3003810",
    "source": "Wikidata"
  },
  {
    "wikidata_id": "Q2883914",
    "name": "York Museum Gardens",
    "country": "United Kingdom",
    "latitude": "53.9614",
    "longitude": "-1.08806",
    "website": "https://www.yorkshiremuseum.org.uk/york-museum-gardens/",
    "founded": "1835-01-01",
    "area_ha": "",
    "wikidata_url": "http://www.wikidata.org/entity/Q2883914",
    "source": "Wikidata"
  },
  {
    "wikidata_id": "Q2915575",
    "name": "Queen Sirikit Park",
    "country": "Thailand",
    "latitude": "13.80666667",
    "longitude": "100.55",
    "website": "",
    "founded": "1992-01-01",
    "area_ha": "",
    "wikidata_url": "http://www.wikidata.org/entity/Q2915575",
    "source": "Wikidata"
  },
  {
    "wikidata_id": "Q2859708",
    "name": "Arboretum de Ripaille",
    "country": "France",
    "latitude": "46.39154444",
    "longitude": "6.50088056",
    "website": "",
    "founded": "1930-01-01",
    "area_ha": "",
    "wikidata_url": "http://www.wikidata.org/entity/Q2859708",
    "source": "Wikidata"
  },
  {
    "wikidata_id": "Q2881810",
    "name": "Bambouseraie de Prafrance",
    "country": "France",
    "latitude": "44.0703204",
    "longitude": "3.9772224",
    "website": "https://www.bambouseraie.fr/",
    "founded": "1856-01-01",
    "area_ha": "",
    "wikidata_url": "http://www.wikidata.org/entity/Q2881810",
    "source": "Wikidata"
  },
  {
    "wikidata_id": "Q3031554",
    "name": "Omora Ethnobotanical Park",
    "country": "Chile",
    "latitude": "-54.938461",
    "longitude": "-67.626469",
    "website": "http://www.omora.org/",
    "founded": "2000-01-01",
    "area_ha": "",
    "wikidata_url": "http://www.wikidata.org/entity/Q3031554",
    "source": "Wikidata"
  },
  {
    "wikidata_id": "Q2839423",
    "name": "Wentworth Castle Gardens",
    "country": "United Kingdom",
    "latitude": "53.524922",
    "longitude": "-1.519734",
    "website": "https://www.nationaltrust.org.uk/wentworth-castle-gardens",
    "founded": "",
    "area_ha": "",
    "wikidata_url": "http://www.wikidata.org/entity/Q2839423",
    "source": "Wikidata"
  },
  {
    "wikidata_id": "Q2969934",
    "name": "Château de Mongenan",
    "country": "France",
    "latitude": "44.696111111",
    "longitude": "-0.430833333",
    "website": "http://www.chateaudemongenan.com/historique.htm",
    "founded": "",
    "area_ha": "",
    "wikidata_url": "http://www.wikidata.org/entity/Q2969934",
    "source": "Wikidata"
  },
  {
    "wikidata_id": "Q2747212",
    "name": "National Kandawgyi Botanical Gardens",
    "country": "Myanmar",
    "latitude": "21.996027777",
    "longitude": "96.46775",
    "website": "",
    "founded": "1915-01-01",
    "area_ha": "",
    "wikidata_url": "http://www.wikidata.org/entity/Q2747212",
    "source": "Wikidata"
  },
  {
    "wikidata_id": "Q2889004",
    "name": "Unellez Botanical Garden",
    "country": "Venezuela",
    "latitude": "8.63527778",
    "longitude": "-70.24916667",
    "website": "",
    "founded": "1979-01-01",
    "area_ha": "",
    "wikidata_url": "http://www.wikidata.org/entity/Q2889004",
    "source": "Wikidata"
  },
  {
    "wikidata_id": "Q3028259",
    "name": "Botanical Garden of São Paulo",
    "country": "Brazil",
    "latitude": "-23.639",
    "longitude": "-46.6203",
    "website": "https://jardimbotanico.com.br/",
    "founded": "1938-01-01",
    "area_ha": "",
    "wikidata_url": "http://www.wikidata.org/entity/Q3028259",
    "source": "Wikidata"
  },
  {
    "wikidata_id": "Q2859714",
    "name": "Arboretum des Grands Murcins",
    "country": "France",
    "latitude": "46.2036",
    "longitude": "5.1426",
    "website": "",
    "founded": "",
    "area_ha": "",
    "wikidata_url": "http://www.wikidata.org/entity/Q2859714",
    "source": "Wikidata"
  },
  {
    "wikidata_id": "Q3065485",
    "name": "Jardin botanique de Bayonne",
    "country": "France",
    "latitude": "43.4923",
    "longitude": "-1.4793",
    "website": "",
    "founded": "",
    "area_ha": "",
    "wikidata_url": "http://www.wikidata.org/entity/Q3065485",
    "source": "Wikidata"
  },
  {
    "wikidata_id": "Q2944918",
    "name": "Jardin botanique de la Presle",
    "country": "France",
    "latitude": "49.148265",
    "longitude": "3.923042",
    "website": "",
    "founded": "",
    "area_ha": "",
    "wikidata_url": "http://www.wikidata.org/entity/Q2944918",
    "source": "Wikidata"
  },
  {
    "wikidata_id": "Q2859697",
    "name": "Arboretum Vilmorin",
    "country": "France",
    "latitude": "48.749879",
    "longitude": "2.268323",
    "website": "",
    "founded": "",
    "area_ha": "",
    "wikidata_url": "http://www.wikidata.org/entity/Q2859697",
    "source": "Wikidata"
  },
  {
    "wikidata_id": "Q2692902",
    "name": "National Capital Botanical Gardens",
    "country": "Papua New Guinea",
    "latitude": "-9.4655",
    "longitude": "147.1969",
    "website": "",
    "founded": "",
    "area_ha": "",
    "wikidata_url": "http://www.wikidata.org/entity/Q2692902",
    "source": "Wikidata"
  },
  {
    "wikidata_id": "Q2917011",
    "name": "Botanical Garden of the University of Latvia",
    "country": "Latvia",
    "latitude": "56.9502",
    "longitude": "24.0599",
    "website": "http://www.botanika.lu.lv",
    "founded": "1922-01-01",
    "area_ha": "",
    "wikidata_url": "http://www.wikidata.org/entity/Q2917011",
    "source": "Wikidata"
  },
  {
    "wikidata_id": "Q2994530",
    "name": "Conservatoire du Bégonia",
    "country": "France",
    "latitude": "45.9245",
    "longitude": "-0.9558",
    "website": "http://www.ville-rochefort.fr/culture/equipement/begonia",
    "founded": "",
    "area_ha": "",
    "wikidata_url": "http://www.wikidata.org/entity/Q2994530",
    "source": "Wikidata"
  },
  {
    "wikidata_id": "Q2859700",
    "name": "Arboretum d'Harcourt",
    "country": "France",
    "latitude": "49.173",
    "longitude": "0.788",
    "website": "",
    "founded": "",
    "area_ha": "",
    "wikidata_url": "http://www.wikidata.org/entity/Q2859700",
    "source": "Wikidata"
  },
  {
    "wikidata_id": "Q2859715",
    "name": "Arboretum du Chêne-Vert",
    "country": "France",
    "latitude": "45.881111111",
    "longitude": "0.7206",
    "website": "",
    "founded": "",
    "area_ha": "",
    "wikidata_url": "http://www.wikidata.org/entity/Q2859715",
    "source": "Wikidata"
  },
  {
    "wikidata_id": "Q2945663",
    "name": "Centre Horticole de la Ville de Paris",
    "country": "France",
    "latitude": "48.7486",
    "longitude": "2.3389",
    "website": "",
    "founded": "",
    "area_ha": "",
    "wikidata_url": "http://www.wikidata.org/entity/Q2945663",
    "source": "Wikidata"
  },
  {
    "wikidata_id": "Q2919730",
    "name": "Chicago Botanic Garden",
    "country": "United States",
    "latitude": "42.1475",
    "longitude": "-87.789722222",
    "website": "https://www.chicagobotanic.org/",
    "founded": "1972-01-01",
    "area_ha": "",
    "wikidata_url": "http://www.wikidata.org/entity/Q2919730",
    "source": "Wikidata"
  },
  {
    "wikidata_id": "Q2859712",
    "name": "Arboretum de la Foux",
    "country": "France",
    "latitude": "44.131666666",
    "longitude": "3.384722222",
    "website": "",
    "founded": "",
    "area_ha": "",
    "wikidata_url": "http://www.wikidata.org/entity/Q2859712",
    "source": "Wikidata"
  },
  {
    "wikidata_id": "Q2784689",
    "name": "Musée en Plein Air de Parakou",
    "country": "Benin",
    "latitude": "9.32896",
    "longitude": "2.61851",
    "website": "",
    "founded": "1968-01-01",
    "area_ha": "",
    "wikidata_url": "http://www.wikidata.org/entity/Q2784689",
    "source": "Wikidata"
  },
  {
    "wikidata_id": "Q2739057",
    "name": "Arboretum de l'Abiétinée",
    "country": "France",
    "latitude": "48.70836667",
    "longitude": "6.19486111",
    "website": "",
    "founded": "",
    "area_ha": "",
    "wikidata_url": "http://www.wikidata.org/entity/Q2739057",
    "source": "Wikidata"
  },
  {
    "wikidata_id": "Q3034611",
    "name": "Q3034611",
    "country": "France",
    "latitude": "47.7272",
    "longitude": "2.0237",
    "website": "http://www.domaineduciran.com",
    "founded": "",
    "area_ha": "",
    "wikidata_url": "http://www.wikidata.org/entity/Q3034611",
    "source": "Wikidata"
  },
  {
    "wikidata_id": "Q2917341",
    "name": "Q2917341",
    "country": "Japan",
    "latitude": "35.130639",
    "longitude": "136.944167",
    "website": "",
    "founded": "",
    "area_ha": "",
    "wikidata_url": "http://www.wikidata.org/entity/Q2917341",
    "source": "Wikidata"
  },
  {
    "wikidata_id": "Q2879127",
    "name": "Giardino Botanico di Valbonella",
    "country": "Italy",
    "latitude": "43.86",
    "longitude": "11.78",
    "website": "http://www.parcoforestecasentinesi.it/pfc/index.php?option=com_content&task=view&id=131&Itemid=118&lang=it",
    "founded": "1983-01-01",
    "area_ha": "",
    "wikidata_url": "http://www.wikidata.org/entity/Q2879127",
    "source": "Wikidata"
  },
  {
    "wikidata_id": "Q3052500",
    "name": "Meise Botanic Garden",
    "country": "Belgium",
    "latitude": "50.927982",
    "longitude": "4.329074",
    "website": "https://www.plantentuinmeise.be/",
    "founded": "1796-01-01",
    "area_ha": "",
    "wikidata_url": "http://www.wikidata.org/entity/Q3052500",
    "source": "Wikidata"
  },
  {
    "wikidata_id": "Q2994542",
    "name": "Conservatoire National des Plantes à Parfum, Médicinales, Aromatiques et Industrielles",
    "country": "France",
    "latitude": "48.39694444",
    "longitude": "2.47916667",
    "website": "",
    "founded": "",
    "area_ha": "",
    "wikidata_url": "http://www.wikidata.org/entity/Q2994542",
    "source": "Wikidata"
  },
  {
    "wikidata_id": "Q2794125",
    "name": "Koko Crater Botanical Garden",
    "country": "United States",
    "latitude": "21.2931",
    "longitude": "-157.6772",
    "website": "https://www.honolulu.gov/cms-dpr-menu/site-dpr-sitearticles/572-koko-crater-botanical-garden.html",
    "founded": "1958-01-01",
    "area_ha": "",
    "wikidata_url": "http://www.wikidata.org/entity/Q2794125",
    "source": "Wikidata"
  },
  {
    "wikidata_id": "Q2859713",
    "name": "Arboretum de la Hutte",
    "country": "France",
    "latitude": "48.045739",
    "longitude": "6.080377",
    "website": "",
    "founded": "",
    "area_ha": "",
    "wikidata_url": "http://www.wikidata.org/entity/Q2859713",
    "source": "Wikidata"
  },
  {
    "wikidata_id": "Q2788697",
    "name": "Hortus Bulborum",
    "country": "Netherlands",
    "latitude": "52.563889",
    "longitude": "4.693056",
    "website": "",
    "founded": "1928-01-01",
    "area_ha": "",
    "wikidata_url": "http://www.wikidata.org/entity/Q2788697",
    "source": "Wikidata"
  },
  {
    "wikidata_id": "Q2859718",
    "name": "Arboretum de l'École du Breuil",
    "country": "France",
    "latitude": "48.82138889",
    "longitude": "2.45638889",
    "website": "",
    "founded": "",
    "area_ha": "",
    "wikidata_url": "http://www.wikidata.org/entity/Q2859718",
    "source": "Wikidata"
  },
  {
    "wikidata_id": "Q2893656",
    "name": "South Bay Botanic Gardens",
    "country": "United States",
    "latitude": "32.6424543",
    "longitude": "-116.995192",
    "website": "",
    "founded": "",
    "area_ha": "",
    "wikidata_url": "http://www.wikidata.org/entity/Q2893656",
    "source": "Wikidata"
  },
  {
    "wikidata_id": "Q2721720",
    "name": "Q2721720",
    "country": "Spain",
    "latitude": "43.13944444",
    "longitude": "-1.61222222",
    "website": "",
    "founded": "",
    "area_ha": "",
    "wikidata_url": "http://www.wikidata.org/entity/Q2721720",
    "source": "Wikidata"
  },
  {
    "wikidata_id": "Q2859706",
    "name": "Arboretum de Puéchagut",
    "country": "France",
    "latitude": "43.990555555",
    "longitude": "3.571666666",
    "website": "",
    "founded": "",
    "area_ha": "",
    "wikidata_url": "http://www.wikidata.org/entity/Q2859706",
    "source": "Wikidata"
  },
  {
    "wikidata_id": "Q2909300",
    "name": "Bold Park",
    "country": "Australia",
    "latitude": "-31.946",
    "longitude": "115.771",
    "website": "",
    "founded": "1999-01-01",
    "area_ha": "",
    "wikidata_url": "http://www.wikidata.org/entity/Q2909300",
    "source": "Wikidata"
  },
  {
    "wikidata_id": "Q2859723",
    "name": "Arboretum municipal de Verrières-le-Buisson",
    "country": "France",
    "latitude": "48.75166667",
    "longitude": "2.27027778",
    "website": "",
    "founded": "",
    "area_ha": "",
    "wikidata_url": "http://www.wikidata.org/entity/Q2859723",
    "source": "Wikidata"
  },
  {
    "wikidata_id": "Q2886576",
    "name": "Houston Arboretum and Nature Center",
    "country": "United States",
    "latitude": "29.7652",
    "longitude": "-95.452",
    "website": "",
    "founded": "",
    "area_ha": "",
    "wikidata_url": "http://www.wikidata.org/entity/Q2886576",
    "source": "Wikidata"
  },
  {
    "wikidata_id": "Q2755982",
    "name": "Uppsala Botanical Garden",
    "country": "Sweden",
    "latitude": "59.8525",
    "longitude": "17.62916667",
    "website": "http://www.botan.uu.se",
    "founded": "1794-01-01",
    "area_ha": "",
    "wikidata_url": "http://www.wikidata.org/entity/Q2755982",
    "source": "Wikidata"
  },
  {
    "wikidata_id": "Q892711",
    "name": "University of Copenhagen Botanical Garden",
    "country": "Denmark",
    "latitude": "55.686944444",
    "longitude": "12.573888888",
    "website": "https://botanik.snm.ku.dk/",
    "founded": "1600-01-01",
    "area_ha": "",
    "wikidata_url": "http://www.wikidata.org/entity/Q892711",
    "source": "Wikidata"
  },
  {
    "wikidata_id": "Q894642",
    "name": "Duissern Botanical Garden",
    "country": "Germany",
    "latitude": "51.4358",
    "longitude": "6.79725",
    "website": "https://www.duisburg.de/microsites/sieben_bezirke/mitte/duissern/sehenswuerdigkeiten/botanischer-garten.php",
    "founded": "",
    "area_ha": "",
    "wikidata_url": "http://www.wikidata.org/entity/Q894642",
    "source": "Wikidata"
  },
  {
    "wikidata_id": "Q677602",
    "name": "Botanical Garden of the University of Vienna",
    "country": "Austria",
    "latitude": "48.191666666",
    "longitude": "16.383888888",
    "website": "",
    "founded": "1754-01-01",
    "area_ha": "",
    "wikidata_url": "http://www.wikidata.org/entity/Q677602",
    "source": "Wikidata"
  },
  {
    "wikidata_id": "Q831148",
    "name": "Buenos Aires Botanical Garden",
    "country": "Argentina",
    "latitude": "-34.582469444",
    "longitude": "-58.418597222",
    "website": "https://buenosaires.gob.ar/vicejefatura/ambiente/jardin-botanico",
    "founded": "1898-01-01",
    "area_ha": "",
    "wikidata_url": "http://www.wikidata.org/entity/Q831148",
    "source": "Wikidata"
  },
  {
    "wikidata_id": "Q796229",
    "name": "Earl Burns Miller Japanese Garden",
    "country": "United States",
    "latitude": "33.7852",
    "longitude": "-118.12",
    "website": "",
    "founded": "",
    "area_ha": "",
    "wikidata_url": "http://www.wikidata.org/entity/Q796229",
    "source": "Wikidata"
  },
  {
    "wikidata_id": "Q873682",
    "name": "Botanischer Garten der Technischen Universität Braunschweig",
    "country": "Germany",
    "latitude": "52.2708",
    "longitude": "10.5331",
    "website": "https://www.tu-braunschweig.de/ifp/garten",
    "founded": "",
    "area_ha": "",
    "wikidata_url": "http://www.wikidata.org/entity/Q873682",
    "source": "Wikidata"
  },
  {
    "wikidata_id": "Q810774",
    "name": "Bath Botanical Gardens",
    "country": "Jamaica",
    "latitude": "17.947404",
    "longitude": "-76.348696",
    "website": "http://www.jnht.com/site_Bath_Botanic_Garden.php",
    "founded": "",
    "area_ha": "",
    "wikidata_url": "http://www.wikidata.org/entity/Q810774",
    "source": "Wikidata"
  },
  {
    "wikidata_id": "Q894633",
    "name": "Botanical Garden",
    "country": "Germany",
    "latitude": "53.0663",
    "longitude": "8.85228",
    "website": "",
    "founded": "",
    "area_ha": "",
    "wikidata_url": "http://www.wikidata.org/entity/Q894633",
    "source": "Wikidata"
  },
  {
    "wikidata_id": "Q827406",
    "name": "Forstbotanischer Garten Tharandt",
    "country": "Germany",
    "latitude": "50.984363",
    "longitude": "13.57819",
    "website": "http://forstpark.de",
    "founded": "",
    "area_ha": "",
    "wikidata_url": "http://www.wikidata.org/entity/Q827406",
    "source": "Wikidata"
  },
  {
    "wikidata_id": "Q632716",
    "name": "Domaine du Rayol",
    "country": "France",
    "latitude": "43.1554",
    "longitude": "6.4806",
    "website": "",
    "founded": "",
    "area_ha": "",
    "wikidata_url": "http://www.wikidata.org/entity/Q632716",
    "source": "Wikidata"
  },
  {
    "wikidata_id": "Q870156",
    "name": "Rennsteiggarten Oberhof",
    "country": "Germany",
    "latitude": "50.6925",
    "longitude": "10.7194",
    "website": "http://www.arktisch-alpiner-garten.de/index.htm",
    "founded": "",
    "area_ha": "",
    "wikidata_url": "http://www.wikidata.org/entity/Q870156",
    "source": "Wikidata"
  },
  {
    "wikidata_id": "Q879081",
    "name": "Düsseldorf Botanical Garden",
    "country": "Germany",
    "latitude": "51.1869",
    "longitude": "6.8025",
    "website": "https://www.botanischergarten.hhu.de/",
    "founded": "1973-01-01",
    "area_ha": "",
    "wikidata_url": "http://www.wikidata.org/entity/Q879081",
    "source": "Wikidata"
  },
  {
    "wikidata_id": "Q827435",
    "name": "Botanical Garden of the Baltic Federal University Kant",
    "country": "Russia",
    "latitude": "54.737222222",
    "longitude": "20.517777777",
    "website": "https://www.kantiana.ru/garden/",
    "founded": "1904-01-01",
    "area_ha": "",
    "wikidata_url": "http://www.wikidata.org/entity/Q827435",
    "source": "Wikidata"
  },
  {
    "wikidata_id": "Q776863",
    "name": "Shinjuku Gyoen",
    "country": "Japan",
    "latitude": "35.687169444",
    "longitude": "139.710644444",
    "website": "https://www.env.go.jp/garden/shinjukugyoen/",
    "founded": "1892-01-01",
    "area_ha": "",
    "wikidata_url": "http://www.wikidata.org/entity/Q776863",
    "source": "Wikidata"
  },
  {
    "wikidata_id": "Q630410",
    "name": "Ellerhoop-Thiensen Arboretum",
    "country": "Germany",
    "latitude": "53.7173",
    "longitude": "9.77642",
    "website": "https://www.arboretum-ellerhoop.de/",
    "founded": "",
    "area_ha": "",
    "wikidata_url": "http://www.wikidata.org/entity/Q630410",
    "source": "Wikidata"
  },
  {
    "wikidata_id": "Q871292",
    "name": "Botanischer Garten der Johannes Gutenberg-Universität Mainz",
    "country": "Germany",
    "latitude": "49.9923",
    "longitude": "8.24369",
    "website": "https://www.botgarten.uni-mainz.de/",
    "founded": "",
    "area_ha": "",
    "wikidata_url": "http://www.wikidata.org/entity/Q871292",
    "source": "Wikidata"
  },
  {
    "wikidata_id": "Q829338",
    "name": "Carlton Gardens",
    "country": "Australia",
    "latitude": "-37.8061",
    "longitude": "144.97",
    "website": "",
    "founded": "1856-01-01",
    "area_ha": "",
    "wikidata_url": "http://www.wikidata.org/entity/Q829338",
    "source": "Wikidata"
  },
  {
    "wikidata_id": "Q838691",
    "name": "Muséum national d'histoire naturelle",
    "country": "France",
    "latitude": "48.842222222",
    "longitude": "2.356111111",
    "website": "https://www.mnhn.fr/",
    "founded": "1793-06-10",
    "area_ha": "",
    "wikidata_url": "http://www.wikidata.org/entity/Q838691",
    "source": "Wikidata"
  },
  {
    "wikidata_id": "Q891066",
    "name": "Bois des Moutiers",
    "country": "France",
    "latitude": "49.91166667",
    "longitude": "0.98305556",
    "website": "http://www.boisdesmoutiers.com/",
    "founded": "",
    "area_ha": "",
    "wikidata_url": "http://www.wikidata.org/entity/Q891066",
    "source": "Wikidata"
  },
  {
    "wikidata_id": "Q767907",
    "name": "Jardin botanique de Caen",
    "country": "France",
    "latitude": "49.1891",
    "longitude": "-0.37159",
    "website": "",
    "founded": "",
    "area_ha": "",
    "wikidata_url": "http://www.wikidata.org/entity/Q767907",
    "source": "Wikidata"
  },
  {
    "wikidata_id": "Q870492",
    "name": "Stadtpark und Botanischer Garten Gütersloh",
    "country": "Germany",
    "latitude": "51.8979",
    "longitude": "8.391",
    "website": "",
    "founded": "",
    "area_ha": "",
    "wikidata_url": "http://www.wikidata.org/entity/Q870492",
    "source": "Wikidata"
  },
  {
    "wikidata_id": "Q894637",
    "name": "Akureyri Botanical Garden",
    "country": "Iceland",
    "latitude": "65.67510433",
    "longitude": "-18.09339881",
    "website": "http://www.lystigardur.akureyri.is/",
    "founded": "1912-01-01",
    "area_ha": "",
    "wikidata_url": "http://www.wikidata.org/entity/Q894637",
    "source": "Wikidata"
  },
  {
    "wikidata_id": "Q882377",
    "name": "Botanischer Garten der Ruhr-Universität Bochum",
    "country": "Germany",
    "latitude": "51.4419",
    "longitude": "7.2675",
    "website": "",
    "founded": "1968-01-01",
    "area_ha": "",
    "wikidata_url": "http://www.wikidata.org/entity/Q882377",
    "source": "Wikidata"
  },
  {
    "wikidata_id": "Q880814",
    "name": "Bunter Garten",
    "country": "Germany",
    "latitude": "51.2039",
    "longitude": "6.43389",
    "website": "",
    "founded": "",
    "area_ha": "",
    "wikidata_url": "http://www.wikidata.org/entity/Q880814",
    "source": "Wikidata"
  },
  {
    "wikidata_id": "Q686324",
    "name": "Botanical Garden of the University of Zurich",
    "country": "Switzerland",
    "latitude": "47.358647222",
    "longitude": "8.561105555",
    "website": "http://www.bg.uzh.ch",
    "founded": "",
    "area_ha": "",
    "wikidata_url": "http://www.wikidata.org/entity/Q686324",
    "source": "Wikidata"
  },
  {
    "wikidata_id": "Q630459",
    "name": "Arboretum Park Härle",
    "country": "Germany",
    "latitude": "50.7152",
    "longitude": "7.16911",
    "website": "",
    "founded": "",
    "area_ha": "",
    "wikidata_url": "http://www.wikidata.org/entity/Q630459",
    "source": "Wikidata"
  },
  {
    "wikidata_id": "Q741730",
    "name": "Dr. Sun Yat-Sen Classical Chinese Garden",
    "country": "Canada",
    "latitude": "49.27966",
    "longitude": "-123.10397",
    "website": "https://vancouverchinesegarden.com/",
    "founded": "1986-01-01",
    "area_ha": "",
    "wikidata_url": "http://www.wikidata.org/entity/Q741730",
    "source": "Wikidata"
  },
  {
    "wikidata_id": "Q827398",
    "name": "Botanischer Garten Bielefeld",
    "country": "Germany",
    "latitude": "52.0147",
    "longitude": "8.51",
    "website": "",
    "founded": "1910-01-01",
    "area_ha": "",
    "wikidata_url": "http://www.wikidata.org/entity/Q827398",
    "source": "Wikidata"
  },
  {
    "wikidata_id": "Q877692",
    "name": "Münster Botanical Garden",
    "country": "Germany",
    "latitude": "51.9637",
    "longitude": "7.61056",
    "website": "https://www.uni-muenster.de/BotanischerGarten/index.html",
    "founded": "1803-01-01",
    "area_ha": "",
    "wikidata_url": "http://www.wikidata.org/entity/Q877692",
    "source": "Wikidata"
  },
  {
    "wikidata_id": "Q877915",
    "name": "Landesarboretum Baden-Württemberg",
    "country": "Germany",
    "latitude": "48.7092",
    "longitude": "9.20778",
    "website": "",
    "founded": "",
    "area_ha": "",
    "wikidata_url": "http://www.wikidata.org/entity/Q877915",
    "source": "Wikidata"
  },
  {
    "wikidata_id": "Q875233",
    "name": "Gruson-Gewächshäuser",
    "country": "Germany",
    "latitude": "52.1138",
    "longitude": "11.6316",
    "website": "",
    "founded": "",
    "area_ha": "",
    "wikidata_url": "http://www.wikidata.org/entity/Q875233",
    "source": "Wikidata"
  },
  {
    "wikidata_id": "Q769851",
    "name": "Botanischer Garten Gera",
    "country": "Germany",
    "latitude": "50.8758",
    "longitude": "12.0878",
    "website": "https://www.gera.de/tourismus-freizeit-kultur/museen/botanischer-garten",
    "founded": "1897-01-01",
    "area_ha": "",
    "wikidata_url": "http://www.wikidata.org/entity/Q769851",
    "source": "Wikidata"
  },
  {
    "wikidata_id": "Q890543",
    "name": "Edgewood Botanic Garden",
    "country": "United States",
    "latitude": "37.9028",
    "longitude": "-122.56",
    "website": "",
    "founded": "",
    "area_ha": "",
    "wikidata_url": "http://www.wikidata.org/entity/Q890543",
    "source": "Wikidata"
  },
  {
    "wikidata_id": "Q848820",
    "name": "Kiseki No Hoshi Greenhouse",
    "country": "Japan",
    "latitude": "34.56177778",
    "longitude": "135.00841667",
    "website": "http://www.kisekinohoshi.jp/chinese",
    "founded": "2000-03-18",
    "area_ha": "",
    "wikidata_url": "http://www.wikidata.org/entity/Q848820",
    "source": "Wikidata"
  },
  {
    "wikidata_id": "Q848820",
    "name": "Kiseki No Hoshi Greenhouse",
    "country": "Japan",
    "latitude": "34.56177778",
    "longitude": "135.00841667",
    "website": "http://www.kisekinohoshi.jp/english",
    "founded": "2000-03-18",
    "area_ha": "",
    "wikidata_url": "http://www.wikidata.org/entity/Q848820",
    "source": "Wikidata"
  },
  {
    "wikidata_id": "Q848820",
    "name": "Kiseki No Hoshi Greenhouse",
    "country": "Japan",
    "latitude": "34.56177778",
    "longitude": "135.00841667",
    "website": "https://www.kisekinohoshi.jp/",
    "founded": "2000-03-18",
    "area_ha": "",
    "wikidata_url": "http://www.wikidata.org/entity/Q848820",
    "source": "Wikidata"
  },
  {
    "wikidata_id": "Q848416",
    "name": "Vácrátót Botanical Garden",
    "country": "Hungary",
    "latitude": "47.707222222",
    "longitude": "19.234444444",
    "website": "",
    "founded": "1951-01-01",
    "area_ha": "",
    "wikidata_url": "http://www.wikidata.org/entity/Q848416",
    "source": "Wikidata"
  },
  {
    "wikidata_id": "Q700908",
    "name": "Yubu Island",
    "country": "Japan",
    "latitude": "24.345",
    "longitude": "123.935",
    "website": "https://yubujima.com/",
    "founded": "",
    "area_ha": "",
    "wikidata_url": "http://www.wikidata.org/entity/Q700908",
    "source": "Wikidata"
  },
  {
    "wikidata_id": "Q768376",
    "name": "The Japanese Garden",
    "country": "United States",
    "latitude": "34.1837",
    "longitude": "-118.481",
    "website": "http://thejapanesegarden.com/",
    "founded": "",
    "area_ha": "",
    "wikidata_url": "http://www.wikidata.org/entity/Q768376",
    "source": "Wikidata"
  },
  {
    "wikidata_id": "Q890625",
    "name": "Hakone Gardens",
    "country": "United States",
    "latitude": "37.2524",
    "longitude": "-122.041",
    "website": "",
    "founded": "1917-01-01",
    "area_ha": "",
    "wikidata_url": "http://www.wikidata.org/entity/Q890625",
    "source": "Wikidata"
  },
  {
    "wikidata_id": "Q765568",
    "name": "Jardin botanique de la Charme",
    "country": "France",
    "latitude": "45.800507",
    "longitude": "3.123904",
    "website": "https://clermont-ferrand.fr/jardin-botanique",
    "founded": "1745-01-01",
    "area_ha": "",
    "wikidata_url": "http://www.wikidata.org/entity/Q765568",
    "source": "Wikidata"
  },
  {
    "wikidata_id": "Q830674",
    "name": "Botanischer Garten Schellerhau",
    "country": "Germany",
    "latitude": "50.7678",
    "longitude": "13.6997",
    "website": "",
    "founded": "",
    "area_ha": "",
    "wikidata_url": "http://www.wikidata.org/entity/Q830674",
    "source": "Wikidata"
  },
  {
    "wikidata_id": "Q707660",
    "name": "Botanischer Garten München-Nymphenburg",
    "country": "Germany",
    "latitude": "48.163131007",
    "longitude": "11.499946012",
    "website": "https://www.botmuc.de/",
    "founded": "1914-01-01",
    "area_ha": "",
    "wikidata_url": "http://www.wikidata.org/entity/Q707660",
    "source": "Wikidata"
  },
  {
    "wikidata_id": "Q883976",
    "name": "Botanischer Garten der TU Darmstadt",
    "country": "Germany",
    "latitude": "49.8692",
    "longitude": "8.67861",
    "website": "",
    "founded": "",
    "area_ha": "",
    "wikidata_url": "http://www.wikidata.org/entity/Q883976",
    "source": "Wikidata"
  },
  {
    "wikidata_id": "Q875332",
    "name": "Botanischer Garten der Universität Heidelberg",
    "country": "Germany",
    "latitude": "49.4148",
    "longitude": "8.66778",
    "website": "https://botgart.cos.uni-heidelberg.de",
    "founded": "",
    "area_ha": "",
    "wikidata_url": "http://www.wikidata.org/entity/Q875332",
    "source": "Wikidata"
  },
  {
    "wikidata_id": "Q891197",
    "name": "Bok Tower Gardens",
    "country": "United States",
    "latitude": "27.935333",
    "longitude": "-81.5775",
    "website": "https://boktowergardens.org/",
    "founded": "",
    "area_ha": "",
    "wikidata_url": "http://www.wikidata.org/entity/Q891197",
    "source": "Wikidata"
  },
  {
    "wikidata_id": "Q679067",
    "name": "Wilhelma",
    "country": "Germany",
    "latitude": "48.805",
    "longitude": "9.205",
    "website": "http://www.wilhelma.de",
    "founded": "",
    "area_ha": "",
    "wikidata_url": "http://www.wikidata.org/entity/Q679067",
    "source": "Wikidata"
  },
  {
    "wikidata_id": "Q632833",
    "name": "Lancetilla Botanical Garden",
    "country": "Honduras",
    "latitude": "15.733333333",
    "longitude": "-87.45",
    "website": "",
    "founded": "",
    "area_ha": "",
    "wikidata_url": "http://www.wikidata.org/entity/Q632833",
    "source": "Wikidata"
  },
  {
    "wikidata_id": "Q848413",
    "name": "Botanical Garden, Soroksár",
    "country": "Hungary",
    "latitude": "47.4019",
    "longitude": "19.1551",
    "website": "",
    "founded": "",
    "area_ha": "",
    "wikidata_url": "http://www.wikidata.org/entity/Q848413",
    "source": "Wikidata"
  },
  {
    "wikidata_id": "Q630419",
    "name": "Arboretum Kirchberg",
    "country": "Luxembourg",
    "latitude": "49.62989",
    "longitude": "6.16179",
    "website": "https://www.mnhn.lu/science/collections/botanique-vegetaux-vivants/arboretum-du-kirchberg/",
    "founded": "",
    "area_ha": "",
    "wikidata_url": "http://www.wikidata.org/entity/Q630419",
    "source": "Wikidata"
  },
  {
    "wikidata_id": "Q730948",
    "name": "Jardin des plantes",
    "country": "France",
    "latitude": "48.843888888",
    "longitude": "2.359722222",
    "website": "https://www.jardindesplantesdeparis.fr/",
    "founded": "1635-01-01",
    "area_ha": "",
    "wikidata_url": "http://www.wikidata.org/entity/Q730948",
    "source": "Wikidata"
  },
  {
    "wikidata_id": "Q628828",
    "name": "Stanford University Arboretum",
    "country": "United States",
    "latitude": "37.437777777",
    "longitude": "-122.166666666",
    "website": "",
    "founded": "",
    "area_ha": "",
    "wikidata_url": "http://www.wikidata.org/entity/Q628828",
    "source": "Wikidata"
  },
  {
    "wikidata_id": "Q894629",
    "name": "Botanika",
    "country": "Germany",
    "latitude": "53.0936",
    "longitude": "8.88492",
    "website": "https://www.botanika-bremen.de",
    "founded": "",
    "area_ha": "",
    "wikidata_url": "http://www.wikidata.org/entity/Q894629",
    "source": "Wikidata"
  },
  {
    "wikidata_id": "Q894638",
    "name": "The Botanic Garden",
    "country": "The Gambia",
    "latitude": "13.48339732",
    "longitude": "-16.67245346",
    "website": "",
    "founded": "1924-01-01",
    "area_ha": "",
    "wikidata_url": "http://www.wikidata.org/entity/Q894638",
    "source": "Wikidata"
  },
  {
    "wikidata_id": "Q673954",
    "name": "Arktisch-Alpiner-Garten der Walter-Meusel-Stiftung",
    "country": "Germany",
    "latitude": "50.8876",
    "longitude": "12.9399",
    "website": "http://www.arktisch-alpiner-garten.de/index.htm",
    "founded": "",
    "area_ha": "",
    "wikidata_url": "http://www.wikidata.org/entity/Q673954",
    "source": "Wikidata"
  },
  {
    "wikidata_id": "Q827373",
    "name": "Botanischer Garten Universität Rostock",
    "country": "Germany",
    "latitude": "54.0907",
    "longitude": "12.0931",
    "website": "https://www.garten.uni-rostock.de/",
    "founded": "",
    "area_ha": "",
    "wikidata_url": "http://www.wikidata.org/entity/Q827373",
    "source": "Wikidata"
  },
  {
    "wikidata_id": "Q873964",
    "name": "Forstbotanischer Garten Köln",
    "country": "Germany",
    "latitude": "50.885",
    "longitude": "6.97944",
    "website": "",
    "founded": "",
    "area_ha": "",
    "wikidata_url": "http://www.wikidata.org/entity/Q873964",
    "source": "Wikidata"
  },
  {
    "wikidata_id": "Q630447",
    "name": "Arboretum Main-Taunus",
    "country": "Germany",
    "latitude": "50.1356",
    "longitude": "8.54972",
    "website": "http://www.arboretum-forstamt-koenigstein.de",
    "founded": "",
    "area_ha": "",
    "wikidata_url": "http://www.wikidata.org/entity/Q630447",
    "source": "Wikidata"
  },
  {
    "wikidata_id": "Q873982",
    "name": "Herzogspark",
    "country": "Germany",
    "latitude": "49.0231",
    "longitude": "12.0822",
    "website": "",
    "founded": "",
    "area_ha": "",
    "wikidata_url": "http://www.wikidata.org/entity/Q873982",
    "source": "Wikidata"
  },
  {
    "wikidata_id": "Q623333",
    "name": "Cincinnati Zoo and Botanical Garden",
    "country": "United States",
    "latitude": "39.145",
    "longitude": "-84.5075",
    "website": "http://cincinnatizoo.org",
    "founded": "1875-01-01",
    "area_ha": "",
    "wikidata_url": "http://www.wikidata.org/entity/Q623333",
    "source": "Wikidata"
  },
  {
    "wikidata_id": "Q894638",
    "name": "The Botanic Garden",
    "country": "The Gambia",
    "latitude": "13.478388888",
    "longitude": "-16.6755",
    "website": "",
    "founded": "1924-01-01",
    "area_ha": "",
    "wikidata_url": "http://www.wikidata.org/entity/Q894638",
    "source": "Wikidata"
  },
  {
    "wikidata_id": "Q894636",
    "name": "Madeira Botanical Garden",
    "country": "Portugal",
    "latitude": "32.66222222",
    "longitude": "-16.89583333",
    "website": "https://ifcn.madeira.gov.pt",
    "founded": "1960-01-01",
    "area_ha": "",
    "wikidata_url": "http://www.wikidata.org/entity/Q894636",
    "source": "Wikidata"
  },
  {
    "wikidata_id": "Q654341",
    "name": "Jardin botanique exotique de Menton",
    "country": "France",
    "latitude": "43.7847",
    "longitude": "7.5112",
    "website": "https://www.jardinbotaniquevalrahmehmenton.fr",
    "founded": "1967-01-01",
    "area_ha": "",
    "wikidata_url": "http://www.wikidata.org/entity/Q654341",
    "source": "Wikidata"
  },
  {
    "wikidata_id": "Q836254",
    "name": "Exotenwald Weinheim",
    "country": "Germany",
    "latitude": "49.5408",
    "longitude": "8.675",
    "website": "",
    "founded": "",
    "area_ha": "",
    "wikidata_url": "http://www.wikidata.org/entity/Q836254",
    "source": "Wikidata"
  },
  {
    "wikidata_id": "Q663149",
    "name": "Palmengarten",
    "country": "Germany",
    "latitude": "50.123611111",
    "longitude": "8.655555555",
    "website": "",
    "founded": "",
    "area_ha": "",
    "wikidata_url": "http://www.wikidata.org/entity/Q663149",
    "source": "Wikidata"
  },
  {
    "wikidata_id": "Q629949",
    "name": "Cape Fear Botanical Garden",
    "country": "United States",
    "latitude": "35.0542",
    "longitude": "-78.8589",
    "website": "http://www.capefearbg.org/",
    "founded": "",
    "area_ha": "",
    "wikidata_url": "http://www.wikidata.org/entity/Q629949",
    "source": "Wikidata"
  },
  {
    "wikidata_id": "Q697970",
    "name": "Aromagarten Erlangen",
    "country": "Germany",
    "latitude": "49.6025",
    "longitude": "11.0156",
    "website": "",
    "founded": "",
    "area_ha": "",
    "wikidata_url": "http://www.wikidata.org/entity/Q697970",
    "source": "Wikidata"
  },
  {
    "wikidata_id": "Q894643",
    "name": "Batumi Botanical Garden",
    "country": "Georgia",
    "latitude": "41.692716666",
    "longitude": "41.719783333",
    "website": "http://bbg.ge/en/",
    "founded": "1912-01-01",
    "area_ha": "",
    "wikidata_url": "http://www.wikidata.org/entity/Q894643",
    "source": "Wikidata"
  },
  {
    "wikidata_id": "Q894639",
    "name": "Botanical Garden Bern",
    "country": "Switzerland",
    "latitude": "46.9527",
    "longitude": "7.44491",
    "website": "https://www.boga.unibe.ch",
    "founded": "1859-01-01",
    "area_ha": "",
    "wikidata_url": "http://www.wikidata.org/entity/Q894639",
    "source": "Wikidata"
  },
  {
    "wikidata_id": "Q833862",
    "name": "Chemnitz Botanical Garden",
    "country": "Germany",
    "latitude": "50.8502675",
    "longitude": "12.8902626",
    "website": "",
    "founded": "",
    "area_ha": "",
    "wikidata_url": "http://www.wikidata.org/entity/Q833862",
    "source": "Wikidata"
  },
  {
    "wikidata_id": "Q633365",
    "name": "Japanese Friendship Garden",
    "country": "United States",
    "latitude": "37.322222222",
    "longitude": "-121.861111111",
    "website": "",
    "founded": "",
    "area_ha": "",
    "wikidata_url": "http://www.wikidata.org/entity/Q633365",
    "source": "Wikidata"
  },
  {
    "wikidata_id": "Q894635",
    "name": "Yerevan Botanical Garden",
    "country": "Armenia",
    "latitude": "40.21083",
    "longitude": "44.557064",
    "website": "https://botany.am/hy/the-yerevan-botanical-garden/",
    "founded": "1935-01-01",
    "area_ha": "",
    "wikidata_url": "http://www.wikidata.org/entity/Q894635",
    "source": "Wikidata"
  },
  {
    "wikidata_id": "Q877942",
    "name": "Botanischer Garten der Universität Duisburg-Essen",
    "country": "Germany",
    "latitude": "51.4281",
    "longitude": "6.98139",
    "website": "",
    "founded": "",
    "area_ha": "",
    "wikidata_url": "http://www.wikidata.org/entity/Q877942",
    "source": "Wikidata"
  },
  {
    "wikidata_id": "Q819663",
    "name": "Berggarten",
    "country": "Germany",
    "latitude": "52.3941",
    "longitude": "9.69876",
    "website": "https://www.hannover.de/Herrenhausen/Herrenhäuser-Gärten/Berggarten",
    "founded": "",
    "area_ha": "",
    "wikidata_url": "http://www.wikidata.org/entity/Q819663",
    "source": "Wikidata"
  },
  {
    "wikidata_id": "Q841650",
    "name": "The State Botanical Garden of Georgia",
    "country": "United States",
    "latitude": "33.901389",
    "longitude": "-83.379472",
    "website": "",
    "founded": "",
    "area_ha": "",
    "wikidata_url": "http://www.wikidata.org/entity/Q841650",
    "source": "Wikidata"
  },
  {
    "wikidata_id": "Q827442",
    "name": "Usedom Botanical Gardens",
    "country": "Germany",
    "latitude": "53.916666666",
    "longitude": "14.016666666",
    "website": "",
    "founded": "",
    "area_ha": "",
    "wikidata_url": "http://www.wikidata.org/entity/Q827442",
    "source": "Wikidata"
  },
  {
    "wikidata_id": "Q819811",
    "name": "Bergian botanic garden",
    "country": "Sweden",
    "latitude": "59.369722222",
    "longitude": "18.046111111",
    "website": "http://www.bergianska.se/",
    "founded": "1899-01-01",
    "area_ha": "",
    "wikidata_url": "http://www.wikidata.org/entity/Q819811",
    "source": "Wikidata"
  },
  {
    "wikidata_id": "Q770229",
    "name": "Shimizu Park",
    "country": "Japan",
    "latitude": "35.959842",
    "longitude": "139.849864",
    "website": "https://www.shimizu-kouen.com/",
    "founded": "1894-01-01",
    "area_ha": "",
    "wikidata_url": "http://www.wikidata.org/entity/Q770229",
    "source": "Wikidata"
  },
  {
    "wikidata_id": "Q770229",
    "name": "Shimizu Park",
    "country": "Japan",
    "latitude": "35.959842",
    "longitude": "139.849864",
    "website": "https://www.shimizu-kouen.com/public-about-cn",
    "founded": "1894-01-01",
    "area_ha": "",
    "wikidata_url": "http://www.wikidata.org/entity/Q770229",
    "source": "Wikidata"
  },
  {
    "wikidata_id": "Q770229",
    "name": "Shimizu Park",
    "country": "Japan",
    "latitude": "35.959842",
    "longitude": "139.849864",
    "website": "https://www.shimizu-kouen.com/public-about-en",
    "founded": "1894-01-01",
    "area_ha": "",
    "wikidata_url": "http://www.wikidata.org/entity/Q770229",
    "source": "Wikidata"
  },
  {
    "wikidata_id": "Q894579",
    "name": "Boston Public Garden",
    "country": "United States",
    "latitude": "42.3541",
    "longitude": "-71.0699",
    "website": "",
    "founded": "",
    "area_ha": "",
    "wikidata_url": "http://www.wikidata.org/entity/Q894579",
    "source": "Wikidata"
  },
  {
    "wikidata_id": "Q739334",
    "name": "Botanical Garden of Brussels",
    "country": "Belgium",
    "latitude": "50.854722",
    "longitude": "4.365278",
    "website": "",
    "founded": "1826-01-01",
    "area_ha": "",
    "wikidata_url": "http://www.wikidata.org/entity/Q739334",
    "source": "Wikidata"
  },
  {
    "wikidata_id": "Q824180",
    "name": "Botanischer Garten der Universität des Saarlandes",
    "country": "Germany",
    "latitude": "49.2545",
    "longitude": "7.0378",
    "website": "",
    "founded": "",
    "area_ha": "",
    "wikidata_url": "http://www.wikidata.org/entity/Q824180",
    "source": "Wikidata"
  },
  {
    "wikidata_id": "Q878970",
    "name": "Lehmann-Garten",
    "country": "Germany",
    "latitude": "53.1251",
    "longitude": "13.5273",
    "website": "",
    "founded": "",
    "area_ha": "",
    "wikidata_url": "http://www.wikidata.org/entity/Q878970",
    "source": "Wikidata"
  },
  {
    "wikidata_id": "Q838392",
    "name": "Kadoorie Farm and Botanic Garden",
    "country": "People's Republic of China",
    "latitude": "22.4335",
    "longitude": "114.118",
    "website": "",
    "founded": "1956-01-01",
    "area_ha": "",
    "wikidata_url": "http://www.wikidata.org/entity/Q838392",
    "source": "Wikidata"
  },
  {
    "wikidata_id": "Q874042",
    "name": "Botanischer Garten Krefeld",
    "country": "Germany",
    "latitude": "51.3325",
    "longitude": "6.60306",
    "website": "",
    "founded": "",
    "area_ha": "",
    "wikidata_url": "http://www.wikidata.org/entity/Q874042",
    "source": "Wikidata"
  },
  {
    "wikidata_id": "Q843141",
    "name": "Nanjing Botanical Garden, Memorial Sun Yat-Sen",
    "country": "People's Republic of China",
    "latitude": "32.057222222",
    "longitude": "118.830833333",
    "website": "",
    "founded": "",
    "area_ha": "",
    "wikidata_url": "http://www.wikidata.org/entity/Q843141",
    "source": "Wikidata"
  },
  {
    "wikidata_id": "Q677516",
    "name": "Conservatory and Botanical Garden of the City of Geneva",
    "country": "Switzerland",
    "latitude": "46.226118",
    "longitude": "6.146168",
    "website": "https://www.cjbg.ch/",
    "founded": "1817-01-01",
    "area_ha": "",
    "wikidata_url": "http://www.wikidata.org/entity/Q677516",
    "source": "Wikidata"
  },
  {
    "wikidata_id": "Q630395",
    "name": "WeltWald Harz",
    "country": "Germany",
    "latitude": "51.8199",
    "longitude": "10.2286",
    "website": "https://www.landesforsten.de/erleben/unsere-naturtalente/weltwald-harz/",
    "founded": "",
    "area_ha": "",
    "wikidata_url": "http://www.wikidata.org/entity/Q630395",
    "source": "Wikidata"
  },
  {
    "wikidata_id": "Q848422",
    "name": "Botanical Garden of Naples",
    "country": "Italy",
    "latitude": "40.861359",
    "longitude": "14.262462",
    "website": "https://www.ortobotaniconapoli.it/",
    "founded": "1807-01-01",
    "area_ha": "",
    "wikidata_url": "http://www.wikidata.org/entity/Q848422",
    "source": "Wikidata"
  },
  {
    "wikidata_id": "Q630433",
    "name": "Arboretum Lohbrügge",
    "country": "Germany",
    "latitude": "53.50388889",
    "longitude": "10.19916667",
    "website": "",
    "founded": "",
    "area_ha": "",
    "wikidata_url": "http://www.wikidata.org/entity/Q630433",
    "source": "Wikidata"
  },
  {
    "wikidata_id": "Q870486",
    "name": "Botanischer Garten der Universität Ulm",
    "country": "Germany",
    "latitude": "48.4194",
    "longitude": "9.96667",
    "website": "",
    "founded": "",
    "area_ha": "",
    "wikidata_url": "http://www.wikidata.org/entity/Q870486",
    "source": "Wikidata"
  },
  {
    "wikidata_id": "Q824193",
    "name": "Sichtungsgarten Weihenstephan",
    "country": "Germany",
    "latitude": "48.400755555",
    "longitude": "11.728991666",
    "website": "https://www.hswt.de/weihenstephaner-gaerten/sichtungs.html",
    "founded": "",
    "area_ha": "",
    "wikidata_url": "http://www.wikidata.org/entity/Q824193",
    "source": "Wikidata"
  },
  {
    "wikidata_id": "Q894634",
    "name": "Glasgow Botanic Gardens",
    "country": "United Kingdom",
    "latitude": "55.880139",
    "longitude": "-4.2906442",
    "website": "http://www.glasgowbotanicgardens.com",
    "founded": "1817-01-01",
    "area_ha": "",
    "wikidata_url": "http://www.wikidata.org/entity/Q894634",
    "source": "Wikidata"
  },
  {
    "wikidata_id": "Q894634",
    "name": "Glasgow Botanic Gardens",
    "country": "United Kingdom",
    "latitude": "55.880139",
    "longitude": "-4.2906442",
    "website": "http://www.glasgowbotanicgardens.com/",
    "founded": "1817-01-01",
    "area_ha": "",
    "wikidata_url": "http://www.wikidata.org/entity/Q894634",
    "source": "Wikidata"
  },
  {
    "wikidata_id": "Q630118",
    "name": "Jardin botanique de la Ville de Nice",
    "country": "France",
    "latitude": "43.6851",
    "longitude": "7.2101",
    "website": "",
    "founded": "",
    "area_ha": "",
    "wikidata_url": "http://www.wikidata.org/entity/Q630118",
    "source": "Wikidata"
  },